id,parent,lat,lon,name,location_type,pm_2.5,temp_f,temp_c,humidity,pressure,p_0_3_um,p_0_5_um,p_1_0_um,p_2_5_um,p_5_0_um,p_10_0_um,pm1_0_cf_1,pm2_5_cf_1,pm10_0_cf_1,pm1_0_atm,pm2_5_atm,pm10_0_atm,last_seen,model,adc,rssi,hidden,flagged,downgraded,age,brightness,hardware,version,last_update_check,created,uptime,is_owner,10min_avg,30min_avg,1hour_avg,6hour_avg,1day_avg,1week_avg
14633,,37.275561,-121.964134, Hazelwood canary ,outside,3.07,102.0,38.88888888888889,8.0,1008.09,,,,,,,,,,,,,2020-10-15 20:31:04,PMS5003+PMS5003+BME280,,,False,False,False,0,,,,,,,False,3.34,3.02,2.62,3.85,6.66,21.7
25999,,30.053808,-95.494643, Villages of Bridgestone AQI,outside,16.16,97.0,36.111111111111114,40.0,1006.84,,,,,,,,,,,,,2020-10-15 20:30:24,PMS5003+PMS5003+BME280,,,False,False,False,1,,,,,,,False,15.75,15.3,15.21,18.48,18.74,17.81
14091,,37.88362,-122.070087, WC Hillside,outside,0.91,92.0,33.333333333333336,11.0,1003.22,,,,,,,,,,,,,2020-10-15 20:31:09,PMS5003+PMS5003+BME280,,,False,True,False,0,,,,,,,False,1.09,1.18,1.31,2.91,5.9,28.49
42073,,47.185173,-122.176855,#1,outside,6.47,64.0,17.77777777777778,50.0,1013.89,,,,,,,,,,,,,2020-10-15 20:30:42,PMS5003+PMS5003+BME280,,,False,True,False,0,,,,,,,False,6.21,5.46,4.97,3.57,3.36,18.67
53069,,47.190197,-122.177992,#2,outside,6.66,77.0,25.0,33.0,1013.72,,,,,,,,,,,,,2020-10-15 20:30:44,PMS5003+PMS5003+BME280,,,False,True,False,0,,,,,,,False,5.84,5.15,4.73,3.49,3.31,19.81
22751,,36.807377,-119.796109,#ValleyClimate,outside,31.98,91.0,32.77777777777778,26.0,1005.72,,,,,,,,,,,,,2020-10-15 20:31:26,PMS5003+PMS5003+BME280,,,False,False,False,0,,,,,,,False,30.13,29.47,31.13,32.71,27.41,46.0
2492,,42.714377,-73.202118,'66 Envi Center,outside,6666.0,84.0,28.88888888888889,28.0,987.15,,,,,,,,,,,,,2020-10-15 20:30:14,PMS5003+PMS5003+BME280,,,False,True,False,1,,,,,,,False,7.15,7.61,8.11,12.46,14.87,10.6
30755,,36.737668,-119.778839,'S' St Between Inyo and Mono,outside,26.62,104.0,40.0,15.0,1005.52,,,,,,,,,,,,,2020-10-15 20:30:21,PMS5003+PMS5003+BME280,,,False,False,False,1,,,,,,,False,25.71,24.66,27.99,32.21,25.4,35.54
26941,,29.957206,-90.021706,(Indoor)The Lower 9th Ward Center for Sustainable Engagement and Development,inside,13.54,90.0,32.22222222222222,39.0,1014.98,,,,,,,,,,,,,2020-10-15 20:30:20,PMS5003+PMS5003+BME280,,,False,False,False,1,,,,,,,False,12.16,12.6,12.78,10.27,9.35,8.08
18943,,37.78603,-122.393926,(Indoors) Lansing St,inside,1.33,88.0,31.111111111111114,27.0,1006.09,,,,,,,,,,,,,2020-10-15 20:30:46,PMS5003+PMS5003+BME280,,,False,False,False,0,,,,,,,False,1.73,1.9,2.23,3.07,2.59,2.81
71861,,37.304252,-121.895133,(Private Residence) Settle Ave,inside,19.66,88.0,31.111111111111114,26.0,1011.73,,,,,,,,,,,,,2020-10-15 20:30:54,PMS5003+PMS5003+BME280,,,False,False,False,0,,,,,,,False,19.82,16.34,12.11,7.07,14.3,7.74
44563,,34.10921,-117.634656,003 FK Parking Lot,outside,10.76,108.0,42.22222222222222,5.0,967.63,,,,,,,,,,,,,2020-10-15 20:30:43,PMS5003+PMS5003+BME280,,,False,False,False,0,,,,,,,False,11.24,14.11,17.76,20.7,19.77,28.74
44577,,34.109474,-117.635981,005- FK Shelby Forest,outside,0.0,100.0,37.77777777777778,13.0,969.34,,,,,,,,,,,,,2020-10-15 18:43:06,PMS5003+PMS5003+BME280,,,False,False,False,108,,,,,,,False,0.0,0.0,0.0,0.0,0.0,2.43
51819,,55.820716,-4.072659,01,outside,8.23,55.0,12.777777777777779,51.0,1027.18,,,,,,,,,,,,,2020-10-15 20:29:52,PMS5003+PMS5003+BME280,,,False,False,False,1,,,,,,,False,7.61,5.75,4.73,3.3,2.64,3.85
51713,,55.820764,-4.072763,02,outside,6.92,56.0,13.333333333333334,52.0,1027.22,,,,,,,,,,,,,2020-10-15 20:30:49,PMS5003+PMS5003+BME280,,,False,True,False,0,,,,,,,False,7.06,5.38,4.4,3.03,2.29,3.46
64797,,37.788488,-122.263106,1 5th Avenue Marina Bldg 28 @ El 9 Ft,outside,0.42,99.0,37.22222222222222,6.0,1015.75,,,,,,,,,,,,,2020-10-15 20:31:22,PMS5003+PMS5003+BME280,,,False,False,False,0,,,,,,,False,2.3,3.13,3.47,7.45,10.14,22.01
76111,,37.850892,-122.487404,1 Channing,inside,0.73,88.0,31.111111111111114,20.0,998.71,,,,,,,,,,,,,2020-10-15 20:30:33,PMS5003+PMS5003+BME280,,,False,True,False,1,,,,,,,False,1.47,1.38,1.33,1.4,2.16,1.63
69629,,38.223993,-122.659176,1 Iverson Way,outside,2.75,100.0,37.77777777777778,8.0,1006.33,,,,,,,,,,,,,2020-10-15 20:30:09,PMS5003+PMS5003+BME280,,,False,False,False,1,,,,,,,False,2.96,5.65,11.79,17.55,10.34,14.53
72039,,37.792405,-122.397797,1 Pine Street,inside,0.8,92.0,33.333333333333336,21.0,1006.11,,,,,,,,,,,,,2020-10-15 20:31:12,PMS5003+PMS5003+BME280,,,False,False,False,0,,,,,,,False,1.71,2.06,2.45,4.22,4.74,7.58
12248,,47.402972,8.613296,1 Ueberlandstrasse 129,outside,9.63,55.0,12.777777777777779,57.0,964.17,,,,,,,,,,,,,2020-10-15 20:29:57,PMS5003+PMS5003+BME280,,,False,False,False,1,,,,,,,False,9.58,8.74,7.57,7.66,10.39,10.15
10808,,40.507316,-111.899188,1-800 Contacts,outside,0.75,70.0,21.11111111111111,14.0,877.09,,,,,,,,,,,,,2020-10-15 20:30:02,PMS5003+PMS5003+BME280,,,False,False,False,1,,,,,,,False,0.48,0.5,0.71,1.2,3.11,14.24
67357,,37.38472,-122.20407,10 Alhambra Ct. Portola Valley,outside,3.36,89.0,31.666666666666668,10.0,989.47,,,,,,,,,,,,,2020-10-15 20:30:25,PMS5003+PMS5003+BME280,,,False,False,False,1,,,,,,,False,3.18,2.56,2.29,3.25,5.61,13.92
11570,,43.235435,-79.863272,10,outside,0.0,90.0,32.22222222222222,34.0,855.94,,,,,,,,,,,,,2020-09-30 11:39:59,PMS5003+PMS5003+BME280,,,False,False,True,22131,,,,,,,False,0.0,0.0,0.04,7.78,16.16,14.18
24709,,34.167005,-118.03768,10,outside,15.44,105.0,40.55555555555556,9.0,987.55,,,,,,,,,,,,,2020-10-15 20:31:25,PMS5003+PMS5003+BME280,,,False,False,False,0,,,,,,,False,18.65,19.37,18.41,17.91,18.64,39.25
37569,,40.771884,-73.990025,10 West End Avenue,inside,2.93,82.0,27.77777777777778,35.0,1009.81,,,,,,,,,,,,,2020-10-15 20:30:43,PMS5003+PMS5003+BME280,,,False,False,False,0,,,,,,,False,3.22,3.64,3.84,4.65,6.26,5.44
24993,,45.434752,-75.694492,100 Boteler,inside,1.74,88.0,31.111111111111114,23.0,1028.66,,,,,,,,,,,,,2020-09-20 15:13:00,PMS5003+PMS5003+BME280,,,False,False,False,36318,,,,,,,False,1.72,2.73,6.48,7.97,3.74,3.13
70403,,37.320428,-122.270306,100 Canada Vista,outside,6.14,79.0,26.11111111111111,36.0,997.4,,,,,,,,,,,,,2020-10-15 03:56:15,PMS5003+PMS5003+BME280,,,False,False,False,995,,,,,,,False,6.34,7.34,6.85,5.52,6.36,7.1
47959,,33.767104,-118.198957,100 Oceangate,inside,14.6,78.0,25.555555555555557,40.0,1008.22,,,,,,,,,,,,,2020-10-15 20:31:18,PMS5003+PMS5003+BME280,,,False,False,False,0,,,,,,,False,15.11,18.45,21.45,18.18,14.63,21.31
42003,,37.988603,-122.105746,1000 Rolling Hill Way,outside,2.09,95.0,35.0,11.0,1008.45,,,,,,,,,,,,,2020-10-15 20:30:53,PMS5003+PMS5003+BME280,,,False,False,False,0,,,,,,,False,2.44,2.92,3.83,4.84,7.34,30.09
20747,,37.838977,-122.205489,1000ft Montclair,outside,3.67,96.0,35.55555555555556,13.0,980.46,,,,,,,,,,,,,2020-10-15 20:31:19,PMS5003+PMS5003+BME280,,,False,False,False,0,,,,,,,False,3.04,2.21,2.05,3.58,6.72,27.34
67135,,37.382863,-122.076632,100WElCamino,inside,2.8,87.0,30.555555555555557,27.0,1012.19,,,,,,,,,,,,,2020-10-15 20:31:28,PMS5003+PMS5003+BME280,,,False,False,False,0,,,,,,,False,2.82,2.71,2.8,4.29,5.57,4.69
37077,,37.446829,-122.168242,"101 Alma St, 12th Floor, Palo Alto, CA 94301",outside,5.27,94.0,34.44444444444444,9.0,1010.7,,,,,,,,,,,,,2020-10-15 19:31:48,PMS5003+PMS5003+BME280,,,False,False,False,59,,,,,,,False,3.57,3.49,4.51,11.22,21.67,27.49
61607,,37.460399,-122.18778,102 Encinal Ave.,outside,1.75,87.0,30.555555555555557,16.0,1014.43,,,,,,,,,,,,,2020-10-15 20:30:04,PMS5003+PMS5003+BME280,,,False,False,False,1,,,,,,,False,2.75,2.71,3.04,5.06,7.2,19.86
14713,,40.791145,-111.863052,1020 North Terrace Hils Drive,inside,0.0,85.0,29.444444444444446,14.0,847.89,,,,,,,,,,,,,2020-10-15 20:30:15,PMS5003+PMS5003+BME280,,,False,False,False,1,,,,,,,False,0.04,0.83,1.12,0.48,0.48,0.7
52031,,40.431901,-79.898504,1021 Lancaster,outside,7.96,75.0,23.88888888888889,37.0,980.21,,,,,,,,,,,,,2020-10-15 20:30:59,PMS5003+PMS5003+BME280,,,False,True,False,0,,,,,,,False,7.5,7.31,7.31,7.12,7.28,9.44
5460,,40.72751,-111.861434,1027 Hollywood,outside,0.37,71.0,21.666666666666668,15.0,879.35,,,,,,,,,,,,,2020-10-15 20:29:59,PMS5003+PMS5003+BME280,,,False,False,False,1,,,,,,,False,0.6,0.66,0.96,2.28,4.06,15.66
61513,,37.50964,-122.304153,1040 CONTINENTALS IN 1,inside,1.12,87.0,30.555555555555557,24.0,1001.67,,,,,,,,,,,,,2020-10-15 20:31:07,PMS5003+PMS5003+BME280,,,False,False,False,0,,,,,,,False,1.6,2.58,3.18,7.87,11.05,11.97
61671,,37.509725,-122.304073,1040 CONTINENTALS IN 2,inside,2.06,84.0,28.88888888888889,26.0,1001.1,,,,,,,,,,,,,2020-10-15 20:30:33,PMS5003+PMS5003+BME280,,,False,False,False,1,,,,,,,False,1.61,1.74,1.82,3.6,6.69,9.74
72509,,38.02244,-122.532103,1049 Cresta Way,outside,2.04,93.0,33.88888888888889,7.0,1010.52,,,,,,,,,,,,,2020-10-15 20:30:00,PMS5003+PMS5003+BME280,,,False,False,False,1,,,,,,,False,2.03,2.09,2.81,5.86,6.87,14.31
23943,,64.820823,-147.415847,1051 Dakota St. North Pole AK,outside,0.91,32.0,0.0,46.0,1017.8,,,,,,,,,,,,,2020-10-15 20:31:21,PMS5003+PMS5003+BME280,,,False,True,False,0,,,,,,,False,0.42,0.83,1.12,1.61,5.18,12.99
76623,,35.353182,-113.746199,10546 spring valley drive,outside,0.67,87.0,30.555555555555557,7.0,876.43,,,,,,,,,,,,,2020-10-15 20:30:43,PMS5003+PMS5003+BME280,,,False,False,False,0,,,,,,,False,0.97,1.69,2.91,5.42,5.16,2.3
47495,,35.965694,-78.804272,106 Calico Court,outside,14.77,90.0,32.22222222222222,35.0,1004.18,,,,,,,,,,,,,2020-10-15 20:31:04,PMS5003+PMS5003+BME280,,,False,False,False,0,,,,,,,False,15.2,14.91,14.04,11.46,10.24,11.69
23311,,38.062702,-122.175862,1072 West L Street,outside,0.96,107.0,41.66666666666667,8.0,1012.53,,,,,,,,,,,,,2020-10-15 20:31:06,PMS5003+PMS5003+BME280,,,False,False,False,0,,,,,,,False,0.86,0.98,1.27,3.89,6.2,23.92
66673,,37.780739,-122.411768,1075 Market St,inside,20.31,88.0,31.111111111111114,24.0,1000.78,,,,,,,,,,,,,2020-10-15 20:31:28,PMS5003+PMS5003+BME280,,,False,False,False,0,,,,,,,False,20.6,19.96,18.66,17.14,14.07,11.33
63617,,37.454456,-122.123002,108 Jasmine Way,outside,3.88,97.0,36.111111111111114,9.0,1016.03,,,,,,,,,,,,,2020-10-15 20:30:01,PMS5003+PMS5003+BME280,,,False,False,False,1,,,,,,,False,4.23,4.6,4.27,6.02,8.51,21.54
69223,,37.402519,-122.283286,1080 Bear Gulch,outside,1.47,101.0,38.333333333333336,5.0,957.82,,,,,,,,,,,,,2020-10-15 20:29:53,PMS5003+PMS5003+BME280,,,False,False,False,1,,,,,,,False,1.26,1.27,1.32,2.32,4.36,10.92
73133,,42.128798,-71.17601,108NMainSharon,outside,2.8,72.0,22.22222222222222,48.0,1007.83,,,,,,,,,,,,,2020-10-15 20:31:36,PMS5003+PMS5003+BME280,,,False,False,False,0,,,,,,,False,2.96,2.83,2.94,4.53,3.81,2.78
9014,,40.572341,-79.847495,109 Cove Run,outside,8.53,76.0,24.444444444444446,44.0,982.31,,,,,,,,,,,,,2020-10-15 20:29:56,PMS5003+PMS5003+BME280,,,False,False,False,1,,,,,,,False,8.08,7.95,7.95,5.44,5.05,7.71
2890,,41.359016,-95.96844,10920 Canyon RD,outside,0.64,68.0,20.0,17.0,979.37,,,,,,,,,,,,,2020-10-15 20:30:58,PMS5003+PMS5003+BME280,,,False,False,False,0,,,,,,,False,0.62,0.79,1.08,1.19,2.93,6.89
42905,,39.539897,-123.753534,10Mile,outside,12.77,82.0,27.77777777777778,35.0,1012.72,,,,,,,,,,,,,2020-10-15 20:29:45,PMS5003+PMS5003+BME280,,,False,False,False,1,,,,,,,False,15.06,17.13,18.26,10.85,6.11,4.33
44457,,39.540006,-123.753688,10MileHouse,inside,0.0,85.0,29.444444444444446,38.0,1013.13,,,,,,,,,,,,,2020-10-15 20:30:39,PMS5003+PMS5003+BME280,,,False,False,False,1,,,,,,,False,0.28,1.49,2.41,4.4,12.08,12.08
66239,,37.773904,-122.467569,10th and Fulton Deck,outside,2.58,91.0,32.77777777777778,9.0,1008.56,,,,,,,,,,,,,2020-10-15 20:31:16,PMS5003+PMS5003+BME280,,,False,False,False,0,,,,,,,False,2.98,3.23,4.18,8.74,9.61,17.79
66061,,37.773826,-122.467982,10th Ave at Fulton,inside,2.13,82.0,27.77777777777778,19.0,1008.6,,,,,,,,,,,,,2020-10-15 20:29:40,PMS5003+PMS5003+BME280,,,False,False,False,1,,,,,,,False,2.44,2.67,3.58,7.12,6.98,10.97
70511,,37.785393,-122.4693,10th Ave,outside,6.54,105.0,40.55555555555556,9.0,1011.03,,,,,,,,,,,,,2020-10-15 20:30:09,PMS5003+PMS5003+BME280,,,False,False,False,1,,,,,,,False,3.69,3.91,5.41,10.12,10.3,13.32
53973,,37.558026,-122.318923,10th Ave/Palm,outside,2.13,92.0,33.333333333333336,12.0,1015.55,,,,,,,,,,,,,2020-10-15 20:31:05,PMS5003+PMS5003+BME280,,,False,True,False,0,,,,,,,False,1.95,2.03,2.6,5.52,7.95,22.48
21249,,35.024266,-120.548774,"1105 Trail View Place, Nipomo, CA",outside,30.13,87.0,30.555555555555557,29.0,1005.07,,,,,,,,,,,,,2020-10-15 20:31:02,PMS5003+PMS5003+BME280,,,False,False,False,0,,,,,,,False,28.81,28.4,28.08,17.9,13.18,18.4
71313,,37.831398,-122.27955,1122 40th,inside,1.88,98.0,36.66666666666667,15.0,1013.97,,,,,,,,,,,,,2020-10-15 20:30:14,PMS5003+PMS5003+BME280,,,False,False,False,1,,,,,,,False,1.92,2.25,2.51,3.05,3.93,6.23
37971,,37.883729,-122.290362,"1128 Key Route Blvd, Albany CA",outside,1.05,96.0,35.55555555555556,10.0,1013.8,,,,,,,,,,,,,2020-10-15 20:30:55,PMS5003+PMS5003+BME280,,,False,False,False,0,,,,,,,False,1.03,1.19,1.5,4.09,6.14,19.24
65491,,37.530251,-122.294832,113 W 40th Ave,outside,1.65,96.0,35.55555555555556,8.0,1013.66,,,,,,,,,,,,,2020-10-15 20:31:24,PMS5003+PMS5003+BME280,,,False,False,False,0,,,,,,,False,1.88,2.01,2.36,4.65,6.73,17.75
33823,,42.884995,-78.866696,"113 William st. Buffalo, NY",outside,4.69,61.0,16.11111111111111,60.0,1000.95,,,,,,,,,,,,,2020-10-09 14:42:30,PMS5003+PMS5003+BME280,,,False,False,False,8989,,,,,,,False,7.2,11.06,13.98,12.82,8.47,9.44
73303,,37.771992,-122.4396,1136 Page St,inside,3.01,90.0,32.22222222222222,15.0,1008.31,,,,,,,,,,,,,2020-10-15 20:31:12,PMS5003+PMS5003+BME280,,,False,False,False,0,,,,,,,False,2.99,3.23,3.86,7.0,6.56,4.74
5588,,41.868892,-87.629436,1138 PLYMOUTH,outside,0.0,,,,,,,,,,,,,,,,,2020-10-15 20:31:23,PMS5003+PMS5003+BME280,,,False,False,False,0,,,,,,,False,0.0,0.0,0.0,0.0,0.0,0.0
54183,,39.983944,-76.173252,115 Old Post Lane,outside,8.81,77.0,25.0,45.0,997.4,,,,,,,,,,,,,2020-10-15 20:30:01,PMS5003+PMS5003+BME280,,,False,False,False,1,,,,,,,False,8.25,8.49,8.89,8.34,7.66,11.07
74275,,37.464251,-122.12757,1159 Sage St,outside,2.72,95.0,35.0,10.0,1016.0,,,,,,,,,,,,,2020-10-15 20:29:53,PMS5003+PMS5003+BME280,,,False,False,False,1,,,,,,,False,3.33,3.7,3.42,5.24,7.43,8.93
74195,,37.499699,-122.280346,119 Acaicia Ct.,inside,1.45,88.0,31.111111111111114,30.0,1012.94,,,,,,,,,,,,,2020-10-15 20:31:33,PMS5003+PMS5003+BME280,,,False,False,False,0,,,,,,,False,2.99,2.85,2.85,3.54,5.65,5.59
79057,,37.352233,-122.136147,11950,outside,4.24,96.0,35.55555555555556,7.0,995.93,,,,,,,,,,,,,2020-10-15 20:30:55,PMS5003+PMS5003+BME280,,,False,True,False,0,,,,,,,False,3.75,2.98,2.53,5.88,6.75,1.56
62833,,37.775107,-122.469247,11th & Cabrillo,inside,26.19,89.0,31.666666666666668,35.0,1008.45,,,,,,,,,,,,,2020-09-11 22:38:58,PMS5003+PMS5003+BME280,,,False,False,False,48832,,,,,,,False,26.94,24.99,22.33,19.07,12.75,4.94
60285,,37.77514,-122.469247,11th & Cabrillo outside,outside,34.28,85.0,29.444444444444446,44.0,1008.1,,,,,,,,,,,,,2020-09-11 22:37:49,PMS5003+PMS5003+BME280,,,False,False,False,48833,,,,,,,False,55.46,112.92,145.45,171.17,110.91,31.38
13143,,38.006316,-122.630646,120 pine ave,outside,1.18,93.0,33.88888888888889,16.0,994.3,,,,,,,,,,,,,2020-10-15 20:30:54,PMS5003+PMS5003+BME280,,,False,False,False,0,,,,,,,False,1.45,1.87,2.58,4.52,5.27,21.06
63383,,37.765344,-122.470844,1201 Funston Ave,inside,2.8,83.0,28.333333333333336,27.0,1008.16,,,,,,,,,,,,,2020-10-15 15:31:01,PMS5003+PMS5003+BME280,,,False,False,False,300,,,,,,,False,2.96,3.74,4.56,5.62,5.6,10.81
73275,,,,"1205 Dorothy Way, Modesto, CA",outside,7.09,83.0,28.333333333333336,31.0,1013.5,,,,,,,,,,,,,2020-10-15 20:31:05,PMS5003+PMS5003+BME280,,,False,False,False,0,,,,,,,False,7.68,6.67,5.54,4.23,10.49,6.68
5416,,37.274816,-107.098936,121 Dutton Pagoda Springs Co,outside,0.15,84.0,28.88888888888889,7.0,772.8,,,,,,,,,,,,,2020-10-15 20:31:27,PMS5003+PMS5003+BME280,,,False,False,False,0,,,,,,,False,0.23,0.36,0.65,2.09,2.82,9.15
55339,,40.673155,-74.303564,121 park dr kenilworth nj 07033,outside,4.66,77.0,25.0,41.0,1010.79,,,,,,,,,,,,,2020-10-15 20:30:23,PMS5003+PMS5003+BME280,,,False,False,False,1,,,,,,,False,4.48,4.63,5.11,7.76,12.43,11.83
61199,,36.445955,-121.798002,"121 Rancho San Carlos Road, Carmel CA 93923",outside,1.75,95.0,35.0,10.0,966.58,,,,,,,,,,,,,2020-10-15 20:31:10,PMS5003+PMS5003+BME280,,,False,False,False,0,,,,,,,False,1.7,1.53,1.48,2.47,3.83,11.8
32553,,64.90141,-147.75743,"1231 Sundance, Fairbanks",outside,0.09,29.0,-1.6666666666666667,45.0,1008.93,,,,,,,,,,,,,2020-10-15 20:31:34,PMS5003+PMS5003+BME280,,,False,False,False,0,,,,,,,False,0.16,0.16,0.16,0.18,0.38,1.24
73353,,37.358045,-122.115569,12380 barley hill rd,inside,0.56,89.0,31.666666666666668,29.0,1004.35,,,,,,,,,,,,,2020-10-15 20:31:31,PMS5003+PMS5003+BME280,,,False,True,False,0,,,,,,,False,0.9,0.95,1.0,1.27,2.2,2.57
62649,,37.881638,-122.291868,1242 Evelyn Ave,inside,0.2,91.0,32.77777777777778,25.0,1013.45,,,,,,,,,,,,,2020-10-15 20:31:10,PMS5003+PMS5003+BME280,,,False,True,False,0,,,,,,,False,0.5,0.95,1.01,2.14,4.22,7.47
66821,,37.352013,-122.079582,1250 Fremont Ave - Family Room,inside,0.66,85.0,29.444444444444446,23.0,1008.31,,,,,,,,,,,,,2020-10-15 20:30:52,PMS5003+PMS5003+BME280,,,False,False,False,0,,,,,,,False,0.56,0.47,0.36,0.49,1.21,3.22
68699,,37.352004,-122.07945,1250 Fremont Ave - Outside,outside,4.86,94.0,34.44444444444444,10.0,1008.26,,,,,,,,,,,,,2020-10-15 20:31:14,PMS5003+PMS5003+BME280,,,False,False,False,0,,,,,,,False,5.67,5.16,4.24,4.21,7.24,16.42
61097,,41.494762,-81.709823,1255 W.25 St,outside,6.0,79.0,26.11111111111111,21.0,998.32,,,,,,,,,,,,,2020-10-09 00:07:22,PMS5003+PMS5003+BME280,,,False,False,False,9864,,,,,,,False,4.74,3.74,2.94,5.24,7.45,6.38
12322,,40.796744,-111.936001,1262 N. Carousel Street,outside,0.35,69.0,20.555555555555557,16.0,883.35,,,,,,,,,,,,,2020-10-15 20:30:50,PMS5003+PMS5003+BME280,,,False,False,False,0,,,,,,,False,0.29,0.23,0.34,1.03,3.32,13.48
77595,,37.406952,-121.996267,"1281 Lawrence Station Rd Sunnyvale, CA 94089",inside,20.16,87.0,30.555555555555557,13.0,867.49,,,,,,,,,,,,,2020-10-06 23:41:14,PMS5003+PMS5003+BME280,,,False,False,False,12770,,,,,,,False,28.21,73.01,73.91,25.06,7.05,1.04
40575,,37.773378,-122.470067,12th & Fulton,inside,0.25,82.0,27.77777777777778,32.0,1008.45,,,,,,,,,,,,,2020-10-15 20:29:52,PMS5003+PMS5003+BME280,,,False,False,False,1,,,,,,,False,0.36,0.4,0.79,2.41,2.08,5.42
40573,,37.773474,-122.470005,12th & Fulton Indoor,inside,2.81,84.0,28.88888888888889,20.0,1008.12,,,,,,,,,,,,,2020-10-15 20:31:13,PMS5003+PMS5003+BME280,,,False,False,False,0,,,,,,,False,3.34,3.61,3.82,3.9,4.06,8.01
71325,,37.786258,-122.47124,12th and Lake,inside,3.19,89.0,31.666666666666668,27.0,1010.15,,,,,,,,,,,,,2020-10-15 20:31:08,PMS5003+PMS5003+BME280,,,False,False,False,0,,,,,,,False,3.52,3.43,3.18,5.99,7.15,9.57
76743,,36.620426,-121.914676,12th and Lighthouse,outside,4.16,91.0,32.77777777777778,16.0,1013.2,,,,,,,,,,,,,2020-10-15 20:30:38,PMS5003+PMS5003+BME280,,,False,True,False,1,,,,,,,False,4.92,4.44,5.04,10.26,10.02,3.47
64581,,37.762772,-122.469681,12th Ave,inside,2.52,83.0,28.333333333333336,36.0,1005.65,,,,,,,,,,,,,2020-10-09 21:49:32,PMS5003+PMS5003+BME280,,,False,False,False,8562,,,,,,,False,2.72,2.29,1.73,3.0,6.95,6.41
16863,,64.838225,-147.71021,12th Ave,outside,0.14,33.0,0.5555555555555556,46.0,1016.57,,,,,,,,,,,,,2020-10-15 20:29:38,PMS5003+PMS5003+BME280,,,False,False,False,2,,,,,,,False,0.54,0.6,0.47,0.62,1.25,3.12
19839,,37.770534,-122.414536,12th Street Indoor,inside,8.82,84.0,28.88888888888889,40.0,1015.64,,,,,,,,,,,,,2020-09-26 00:25:07,PMS5003+PMS5003+BME280,,,False,False,False,28566,,,,,,,False,8.96,8.47,8.24,7.99,7.45,18.66
69767,,37.770488,-122.414591,12th Street Indoor Jr.,inside,2.55,87.0,30.555555555555557,24.0,1015.69,,,,,,,,,,,,,2020-10-15 20:30:30,PMS5003+PMS5003+BME280,,,False,False,False,1,,,,,,,False,3.49,4.25,6.17,11.16,10.37,9.55
60015,,37.762129,-122.469673,12thAve,outside,2.95,98.0,36.66666666666667,8.0,1007.64,,,,,,,,,,,,,2020-10-15 20:30:54,PMS5003+PMS5003+BME280,,,False,False,False,0,,,,,,,False,3.2,3.48,4.41,8.27,8.57,20.12
58897,,45.000425,-93.256133,12XX John Adams St. NE,outside,2.58,54.0,12.222222222222223,27.0,987.26,,,,,,,,,,,,,2020-10-15 20:30:34,PMS5003+PMS5003+BME280,,,False,False,False,1,,,,,,,False,2.86,3.33,3.22,2.13,3.61,8.25
4928,,38.090349,-122.238814,1300 Block Lemon,outside,1.98,,,,,,,,,,,,,,,,,2020-10-15 20:31:31,PMS5003+PMS5003+BME280,,,False,False,False,0,,,,,,,False,1.91,1.97,2.2,5.57,8.03,24.47
74291,,37.627494,-122.05097,1301 Buena Vista Ave,inside,1.15,91.0,32.77777777777778,24.0,1014.98,,,,,,,,,,,,,2020-10-15 20:31:10,PMS5003+PMS5003+BME280,,,False,True,False,0,,,,,,,False,0.83,0.63,0.45,0.55,1.32,2.41
15477,,38.097952,-122.239408,"1303 Ryder st, Vallejo, ca,94590",outside,1.47,,,,,,,,,,,,,,,,,2020-10-15 20:08:31,PMS5003+PMS5003+BME280,,,False,False,False,23,,,,,,,False,6.14,7.93,9.38,23.21,19.33,7.28
31185,,37.22168,-80.394267,1307 Highland Cir,outside,11.7,79.0,26.11111111111111,35.0,936.52,,,,,,,,,,,,,2020-10-15 20:30:02,PMS5003+PMS5003+BME280,,,False,False,False,1,,,,,,,False,11.33,10.66,9.82,5.98,4.57,7.24
4613,,37.798345,-120.994838,"1311 San Joaquin St Escalon, CA",outside,20.55,90.0,32.22222222222222,25.0,1012.35,,,,,,,,,,,,,2020-10-15 20:29:50,PMS5003+PMS5003+BME280,,,False,False,False,1,,,,,,,False,20.28,18.89,15.77,8.68,11.47,33.9
19837,,37.806893,-120.995132,"1311 San Joaquin St Escalon, CA Inside",inside,5.28,89.0,31.666666666666668,23.0,1012.82,,,,,,,,,,,,,2020-10-15 20:30:45,PMS5003+PMS5003+BME280,,,False,False,False,0,,,,,,,False,4.87,3.5,2.66,1.64,2.09,4.13
37121,,37.77074,-122.4308,132 Germania St,outside,2.57,95.0,35.0,12.0,1010.84,,,,,,,,,,,,,2020-10-15 20:29:49,PMS5003+PMS5003+BME280,,,False,False,False,1,,,,,,,False,3.49,4.54,6.13,10.35,9.9,18.03
66409,,37.359007,-122.080611,1335 sunrise ct,outside,4.19,95.0,35.0,9.0,1009.6,,,,,,,,,,,,,2020-10-15 20:30:55,PMS5003+PMS5003+BME280,,,False,False,False,0,,,,,,,False,4.74,4.36,3.68,4.17,6.97,19.73
66535,,37.358477,-122.080565,1335 sunrise ct inside,inside,1.85,86.0,30.0,27.0,1009.91,,,,,,,,,,,,,2020-10-15 20:29:51,PMS5003+PMS5003+BME280,,,False,False,False,1,,,,,,,False,1.54,1.64,1.64,1.61,2.48,6.07
72421,,37.878733,-122.287483,1340 H st,inside,2.1,88.0,31.111111111111114,26.0,1013.91,,,,,,,,,,,,,2020-10-15 20:30:44,PMS5003+PMS5003+BME280,,,False,False,False,0,,,,,,,False,4.05,4.23,4.44,8.14,17.25,18.71
42909,,37.376258,-122.125633,13474 Robleda Rd Los Altos Hills Ca,outside,3.67,91.0,32.77777777777778,12.0,1006.9,,,,,,,,,,,,,2020-10-15 20:30:31,PMS5003+PMS5003+BME280,,,False,False,False,1,,,,,,,False,3.62,3.16,2.61,2.88,5.41,20.66
73413,,37.735629,-122.437632,135 red rock way,inside,8.84,94.0,34.44444444444444,11.0,873.31,,,,,,,,,,,,,2020-09-28 22:09:47,PMS5003+PMS5003+BME280,,,False,False,False,24381,,,,,,,False,57.72,120.35,104.07,28.24,7.62,1.11
73227,,38.441088,-122.671714,1354 Yulupa  #H,inside,3.54,82.0,27.77777777777778,29.0,1008.98,,,,,,,,,,,,,2020-10-15 20:30:17,PMS5003+PMS5003+BME280,,,False,False,False,1,,,,,,,False,4.05,4.83,5.97,7.84,5.67,9.65
71065,,37.853609,-122.242132,136,inside,0.04,86.0,30.0,29.0,1005.2,,,,,,,,,,,,,2020-10-15 20:30:25,PMS5003+PMS5003+BME280,,,False,False,False,1,,,,,,,False,0.05,0.08,0.15,1.22,3.75,8.88
77263,,47.721975,-122.157519,136th outside,outside,3.96,73.0,22.77777777777778,31.0,1025.24,,,,,,,,,,,,,2020-10-15 20:31:04,PMS5003+PMS5003+BME280,,,False,True,False,0,,,,,,,False,3.94,3.93,4.03,4.31,4.42,2.7
63351,,37.761627,-122.488106,1377 39th Ave,inside,0.0,81.0,27.222222222222225,39.0,1008.96,,,,,,,,,,,,,2020-10-15 20:31:14,PMS5003+PMS5003+BME280,,,False,False,False,0,,,,,,,False,0.28,0.41,0.84,1.96,1.75,4.22
63903,,37.347386,-122.084433,1377 Montclaire Ct,outside,8.6,81.0,27.222222222222225,34.0,1016.91,,,,,,,,,,,,,2020-10-06 15:00:04,PMS5003+PMS5003+BME280,,,False,False,False,13291,,,,,,,False,6.41,3.35,2.09,1.82,3.45,8.19
64251,,37.347376,-122.084468,1377 Montclaire Ct,inside,3.86,87.0,30.555555555555557,23.0,1007.36,,,,,,,,,,,,,2020-10-15 20:31:25,PMS5003+PMS5003+BME280,,,False,False,False,0,,,,,,,False,4.23,4.32,4.25,3.77,3.85,5.53
71889,,37.347404,-122.084416,1377 Montclaire Ct.  2,inside,2.4,89.0,31.666666666666668,23.0,1006.83,,,,,,,,,,,,,2020-10-15 20:30:44,PMS5003+PMS5003+BME280,,,False,False,False,0,,,,,,,False,2.41,2.4,2.26,2.16,2.73,3.82
79667,,37.354968,-122.094676,1380 Country Club,outside,4.38,89.0,31.666666666666668,10.0,1006.36,,,,,,,,,,,,,2020-10-15 20:30:57,PMS5003+PMS5003+BME280,,,False,True,False,0,,,,,,,False,4.42,3.83,3.21,8.15,6.14,1.22
79327,,37.356722,-122.097789,1380 Fairway Dr.,inside,5.6,86.0,30.0,24.0,1007.68,,,,,,,,,,,,,2020-10-15 20:31:28,PMS5003+PMS5003+BME280,,,False,True,False,0,,,,,,,False,6.07,6.74,5.88,12.24,8.82,1.74
38831,,38.572851,-121.502106,13th & T,outside,4.58,95.0,35.0,13.0,1014.93,,,,,,,,,,,,,2020-10-15 20:31:20,PMS5003+PMS5003+BME280,,,False,False,False,0,,,,,,,False,3.96,3.53,3.05,3.31,8.48,33.31
23285,,38.882974,-76.988037,13th and E St SE,outside,13.96,82.0,27.77777777777778,68.0,1011.22,,,,,,,,,,,,,2020-10-15 20:30:36,PMS5003+PMS5003+BME280,,,False,False,False,1,,,,,,,False,13.94,12.65,11.69,9.28,7.6,10.14
70523,,37.38335,-122.191514,14 Arastradero,outside,2.12,70.0,21.11111111111111,24.0,1004.69,,,,,,,,,,,,,2020-10-15 16:32:43,PMS5003+PMS5003+BME280,,,False,True,False,238,,,,,,,False,2.32,2.48,2.55,4.14,6.68,14.51
72117,,37.921388,-122.509725,14 Echo,inside,0.67,91.0,32.77777777777778,26.0,1016.42,,,,,,,,,,,,,2020-10-15 20:30:55,PMS5003+PMS5003+BME280,,,False,False,False,0,,,,,,,False,0.19,0.61,1.1,1.03,1.63,2.83
66723,,37.527784,-122.292575,140 44th Ave,inside,1.32,95.0,35.0,14.0,1012.43,,,,,,,,,,,,,2020-10-15 20:30:20,PMS5003+PMS5003+BME280,,,False,False,False,1,,,,,,,False,1.23,1.11,1.11,1.61,1.8,3.65
74913,,37.754877,-122.226954,1400 Eastshore Dr,inside,0.28,82.0,27.77777777777778,27.0,1017.37,,,,,,,,,,,,,2020-10-15 20:31:20,PMS5003+PMS5003+BME280,,,False,True,False,0,,,,,,,False,0.29,0.61,1.49,6.3,9.36,6.22
61171,,44.918559,-116.125583,"1405 Warren Wagon Rd. McCall, Idaho 83638",outside,0.07,52.0,11.11111111111111,32.0,860.73,,,,,,,,,,,,,2020-10-15 20:29:43,PMS5003+PMS5003+BME280,,,False,False,False,1,,,,,,,False,0.48,0.6,1.09,2.76,7.21,23.78
76519,,38.109954,-122.883385,142XX SFD,outside,9.25,90.0,32.22222222222222,19.0,1002.11,,,,,,,,,,,,,2020-10-15 20:30:21,PMS5003+PMS5003+BME280,,,False,False,False,1,,,,,,,False,8.1,7.9,9.34,10.98,6.98,2.12
71361,,37.401352,-122.289746,1430 Bear Gulch Gym,inside,0.6,87.0,30.555555555555557,13.0,951.79,,,,,,,,,,,,,2020-10-15 20:30:13,PMS5003+PMS5003+BME280,,,False,False,False,1,,,,,,,False,1.0,1.06,1.0,1.65,1.86,1.91
15923,,45.084006,-92.817049,14410,outside,2.11,61.0,16.11111111111111,25.0,984.98,,,,,,,,,,,,,2020-10-15 20:31:11,PMS5003+PMS5003+BME280,,,False,False,False,0,,,,,,,False,2.32,2.25,2.01,1.18,2.28,4.99
71629,,39.709538,-105.162343,14469WVD,outside,4.22,53.0,11.666666666666668,29.0,817.84,,,,,,,,,,,,,2020-10-15 20:29:45,PMS5003+PMS5003+BME280,,,False,False,False,1,,,,,,,False,3.78,3.67,3.29,1.7,3.88,10.56
74649,,38.513009,-122.99517,14755 Armstrong Woods Road,inside,1.21,82.0,27.77777777777778,33.0,1012.35,,,,,,,,,,,,,2020-10-15 20:30:04,PMS5003+PMS5003+BME280,,,False,False,False,1,,,,,,,False,1.6,2.07,2.34,1.68,1.25,2.1
70515,,38.000866,-122.527593,148 Madison,outside,2.79,97.0,36.111111111111114,8.0,1014.82,,,,,,,,,,,,,2020-10-15 20:31:27,PMS5003+PMS5003+BME280,,,False,False,False,0,,,,,,,False,2.49,2.85,4.14,7.42,7.72,14.36
31583,,38.913805,-77.03275,14th & S ST NW ,outside,9.82,80.0,26.666666666666668,44.0,1009.95,,,,,,,,,,,,,2020-10-15 20:29:50,PMS5003+PMS5003+BME280,,,False,False,False,1,,,,,,,False,10.01,9.02,8.35,6.37,5.86,8.12
35063,,44.043836,-123.100307,14th and Washington (ish),inside,138.77,80.0,26.666666666666668,49.0,1001.48,,,,,,,,,,,,,2020-09-26 01:33:47,PMS5003+PMS5003+BME280,,,False,True,False,28497,,,,,,,False,248.58,366.65,303.17,101.29,41.79,45.05
61489,,48.020795,-66.725453,15 - Listuguj First Nation,outside,6.53,55.0,12.777777777777779,63.0,1014.93,,,,,,,,,,,,,2020-10-15 20:30:33,PMS5003+PMS5003+BME280,,,False,True,False,1,,,,,,,False,6.25,6.36,6.4,5.17,3.5,3.09
55101,,37.782835,-122.454214,150 Parker Avenue,outside,2.09,92.0,33.333333333333336,12.0,1009.23,,,,,,,,,,,,,2020-10-15 20:31:10,PMS5003+PMS5003+BME280,,,False,False,False,0,,,,,,,False,2.11,2.38,3.4,7.36,7.78,18.51
6786,,35.034441,-120.547195,"1518 Trail View Place, Nipomo, CA  93444-6619",outside,30.76,95.0,35.0,19.0,1006.25,,,,,,,,,,,,,2020-10-15 20:30:47,PMS5003+PMS5003+BME280,,,False,False,False,0,,,,,,,False,31.3,30.18,29.14,18.16,13.75,20.26
75279,,37.326297,-121.919155,"1565 Martin Ave, San jose, can 95126",inside,1.88,86.0,30.0,15.0,1012.72,,,,,,,,,,,,,2020-10-15 20:31:22,PMS5003+PMS5003+BME280,,,False,False,False,0,,,,,,,False,2.35,2.38,2.39,4.76,6.41,2.89
77603,,37.326286,-121.919262,"1565 Martin Ave, San jose, can 95126",outside,2.95,94.0,34.44444444444444,8.0,1012.48,,,,,,,,,,,,,2020-10-15 20:31:38,PMS5003+PMS5003+BME280,,,False,False,False,0,,,,,,,False,3.11,3.15,3.15,5.81,7.38,2.98
70189,,37.766073,-122.423986,15th & Guerrero,inside,4.84,89.0,31.666666666666668,14.0,1013.54,,,,,,,,,,,,,2020-10-15 20:30:38,PMS5003+PMS5003+BME280,,,False,False,False,1,,,,,,,False,3.49,3.54,4.56,8.1,12.99,11.79
44055,,37.766277,-122.435686,15th and Castro St.,outside,2.26,88.0,31.111111111111114,14.0,1009.35,,,,,,,,,,,,,2020-10-15 20:30:44,PMS5003+PMS5003+BME280,,,False,False,False,0,,,,,,,False,2.74,3.11,3.89,6.78,7.74,20.64
65713,,37.766154,-122.432766,15th and Noe,outside,3.86,90.0,32.22222222222222,10.0,1011.07,,,,,,,,,,,,,2020-10-15 20:30:27,PMS5003+PMS5003+BME280,,,False,False,False,1,,,,,,,False,3.87,4.2,5.2,9.97,9.67,5.65
72773,,37.766151,-122.432811,15th and Noe Inside (2),inside,3.73,89.0,31.666666666666668,12.0,1011.64,,,,,,,,,,,,,2020-10-15 20:30:14,PMS5003+PMS5003+BME280,,,False,False,False,1,,,,,,,False,3.08,3.22,3.46,4.25,4.74,2.96
71269,,47.708524,-122.312421,15th and Northgate,inside,0.0,82.0,27.77777777777778,30.0,1026.26,,,,,,,,,,,,,2020-10-15 20:30:36,PMS5003+PMS5003+BME280,,,False,False,False,1,,,,,,,False,0.04,0.06,0.12,0.23,0.48,1.14
45797,,40.184704,-105.098627,15th Avenue and 287 Longmont,outside,18.62,64.0,17.77777777777778,25.0,852.08,,,,,,,,,,,,,2020-10-15 20:30:07,PMS5003+PMS5003+BME280,,,False,False,False,1,,,,,,,False,18.57,15.7,12.52,6.18,9.32,22.85
62207,,36.96255,-121.99147,15th Avenue,outside,11.62,85.0,29.444444444444446,31.0,1018.64,,,,,,,,,,,,,2020-10-14 18:16:14,PMS5003+PMS5003+BME280,,,False,False,False,1575,,,,,,,False,9.88,10.06,9.93,9.38,10.1,20.73
65729,,37.531734,-122.242165,16 Barcelona Cir,outside,2.34,96.0,35.55555555555556,9.0,1016.49,,,,,,,,,,,,,2020-10-15 20:31:39,PMS5003+PMS5003+BME280,,,False,False,False,0,,,,,,,False,2.26,2.43,2.97,5.63,7.61,18.63
56703,,48.410302,-122.337523,1600 S 2nd St,outside,7.64,69.0,20.555555555555557,100.0,1034.32,,,,,,,,,,,,,2020-10-15 20:31:22,PMS5003+PMS5003+BME280,,,False,False,False,0,,,,,,,False,7.01,7.41,7.4,5.29,3.65,18.83
76745,,37.879791,-122.28033,1612 Rose,inside,1.18,90.0,32.22222222222222,10.0,1011.09,,,,,,,,,,,,,2020-10-15 20:29:59,PMS5003+PMS5003+BME280,,,False,False,False,1,,,,,,,False,1.33,1.56,2.46,5.34,6.34,2.48
46293,,38.891215,-77.107814,1625 N Quincy St,outside,12.36,,,,,,,,,,,,,,,,,2020-10-15 20:31:32,PMS5003+PMS5003+BME280,,,False,False,False,0,,,,,,,False,13.23,11.81,10.37,6.67,4.64,6.91
77885,,47.4545,-122.328979,16507 4th Ave S Burien WA,outside,3.58,66.0,18.88888888888889,42.0,1028.51,,,,,,,,,,,,,2020-10-15 20:31:08,PMS5003+PMS5003+BME280,,,False,False,False,0,,,,,,,False,3.93,4.45,4.55,4.01,3.27,0.82
35725,,46.29546,-114.0059,1652 Willow Creek,outside,0.02,52.0,11.11111111111111,32.0,888.18,,,,,,,,,,,,,2020-10-15 20:30:57,PMS5003+PMS5003+BME280,,,False,False,False,0,,,,,,,False,0.19,0.24,0.27,0.2,2.93,17.87
8014,,39.998796,-75.13163,"167 W. Allegheny Avenue, Philadelphia PA 19140",outside,3.53,81.0,27.222222222222225,28.0,1011.78,,,,,,,,,,,,,2020-10-15 20:30:18,PMS5003+PMS5003+BME280,,,False,False,False,1,,,,,,,False,4.01,5.88,7.49,9.74,7.85,9.69
34103,,37.828804,-122.14053,"1678 School St., Moraga, CA 94556",outside,1.66,98.0,36.66666666666667,8.0,999.61,,,,,,,,,,,,,2020-10-15 20:31:04,PMS5003+PMS5003+BME280,,,False,False,False,0,,,,,,,False,1.69,1.8,1.99,5.01,8.57,32.65
68593,,37.975695,-122.549352,168 Greenfield,outside,3.11,93.0,33.88888888888889,10.0,1012.98,,,,,,,,,,,,,2020-10-15 20:29:53,PMS5003+PMS5003+BME280,,,False,False,False,1,,,,,,,False,3.24,3.44,4.36,7.54,8.16,16.47
63145,,38.383681,-122.981089,"16869 Taylor Lane, Occidental",outside,12.31,97.0,36.111111111111114,10.0,985.38,,,,,,,,,,,,,2020-10-15 20:30:28,PMS5003+PMS5003+BME280,,,False,False,False,1,,,,,,,False,15.17,19.77,24.88,23.08,12.52,22.03
68957,,37.776088,-122.474415,16th Ave,outside,8.6,93.0,33.88888888888889,14.0,1008.94,,,,,,,,,,,,,2020-10-15 20:30:53,PMS5003+PMS5003+BME280,,,False,True,False,0,,,,,,,False,6.92,5.31,5.68,9.5,9.98,10.29
48333,,53.329401,-6.264591,"17-79 Rathmines Road Lower, Dublin 6",outside,24.0,57.0,13.88888888888889,55.0,1026.91,,,,,,,,,,,,,2020-10-15 20:29:53,PMS5003+PMS5003+BME280,,,False,False,False,1,,,,,,,False,15.59,24.06,23.6,10.97,8.83,10.45
64307,,37.522745,-122.33001,1700 De Anza,inside,2.89,93.0,33.88888888888889,18.0,1001.29,,,,,,,,,,,,,2020-10-15 20:29:41,PMS5003+PMS5003+BME280,,,False,False,False,1,,,,,,,False,2.69,2.87,2.76,3.23,4.55,16.49
63835,,37.522789,-122.330525,1700 De Anza Outside,outside,0.85,123.0,50.55555555555556,0.0,1001.54,,,,,,,,,,,,,2020-10-15 20:30:19,PMS5003+PMS5003+BME280,,,False,False,False,1,,,,,,,False,0.62,0.83,1.2,3.4,5.2,15.0
68025,,37.795163,-121.100783,17000 E. HWY 120 Ripon CA. 95366,outside,11.89,89.0,31.666666666666668,22.0,1014.4,,,,,,,,,,,,,2020-10-15 20:30:24,PMS5003+PMS5003+BME280,,,False,False,False,1,,,,,,,False,11.87,10.66,8.88,6.32,10.02,24.64
54945,,45.005552,-93.252936,1701 Madison St NE,outside,1.75,54.0,12.222222222222223,27.0,985.52,,,,,,,,,,,,,2020-10-15 20:31:03,PMS5003+PMS5003+BME280,,,False,False,False,0,,,,,,,False,2.47,3.92,6.28,4.57,3.85,7.75
67761,,38.10669,-122.580415,1717 Novato Blvd,inside,0.0,83.0,28.333333333333336,23.0,1015.55,,,,,,,,,,,,,2020-10-15 20:31:30,PMS5003+PMS5003+BME280,,,False,False,False,0,,,,,,,False,0.01,0.01,0.02,0.08,0.37,0.89
21317,,46.860226,-114.02304,1719 s 10th st w,outside,2.52,59.0,15.0,33.0,918.83,,,,,,,,,,,,,2020-10-15 20:29:49,PMS5003+PMS5003+BME280,,,False,True,False,1,,,,,,,False,1.33,2.89,4.25,3.74,4.47,19.66
72997,,37.273686,-121.911689,"1736 Fabian Dr San Jose, CA",inside,12.15,93.0,33.88888888888889,20.0,1010.09,,,,,,,,,,,,,2020-10-15 20:29:43,PMS5003+PMS5003+BME280,,,False,False,False,1,,,,,,,False,14.98,12.11,8.42,3.59,4.2,6.75
56071,,37.840405,-122.207097,1748 Indian Way,outside,1.28,91.0,32.77777777777778,10.0,988.66,,,,,,,,,,,,,2020-10-15 20:29:51,PMS5003+PMS5003+BME280,,,False,False,False,1,,,,,,,False,1.4,1.49,1.59,2.99,6.6,26.22
67141,,37.430701,-122.150599,1757 Park Blvd,inside,2.04,82.0,27.77777777777778,25.0,1015.05,,,,,,,,,,,,,2020-10-15 20:30:19,PMS5003+PMS5003+BME280,,,False,False,False,1,,,,,,,False,1.91,2.52,2.34,2.19,4.76,12.31
70301,,37.289597,-121.954929,176 N Milton Ave,outside,4.12,99.0,37.22222222222222,8.0,1008.88,,,,,,,,,,,,,2020-10-15 20:30:30,PMS5003+PMS5003+BME280,,,False,False,False,1,,,,,,,False,3.46,3.37,3.19,5.04,8.32,18.56
68043,,36.426433,-121.308715,1777 Metz Road,outside,3.04,102.0,38.88888888888889,9.0,1006.91,,,,,,,,,,,,,2020-10-15 20:29:54,PMS5003+PMS5003+BME280,,,False,False,False,1,,,,,,,False,2.76,3.49,4.04,5.57,7.42,15.04
64729,,37.762792,-122.414872,17th and Folsom,outside,3.62,93.0,33.88888888888889,10.0,1014.48,,,,,,,,,,,,,2020-10-15 20:30:43,PMS5003+PMS5003+BME280,,,False,False,False,0,,,,,,,False,3.33,3.98,6.85,13.47,12.58,17.57
4101,,37.78119,-122.476532,17th Ave,outside,7.3,94.0,34.44444444444444,17.0,1010.39,,,,,,,,,,,,,2020-10-15 20:30:07,PMS5003+PMS5003+BME280,,,False,False,False,1,,,,,,,False,7.42,6.06,5.94,8.48,8.49,19.5
55623,,37.749698,-122.473587,17th Ave Between Pacheco & Quintara,outside,1.22,95.0,35.0,9.0,999.26,,,,,,,,,,,,,2020-10-15 20:29:44,PMS5003+PMS5003+BME280,,,False,False,False,1,,,,,,,False,1.73,1.92,2.24,4.23,5.73,18.58
944,,41.237524,-111.971543,17th St and Kiesel Ave,,0.0,68.0,20.0,20.0,880.56,,,,,,,,,,,,,2020-10-15 20:30:39,PMS5003+PMS5003+BME280+KIT,,,False,False,False,1,,,,,,,False,0.02,0.06,0.2,0.63,3.4,6.17
75983,,37.449762,-122.132923,17xx Hamilton Ave,outside,3.96,94.0,34.44444444444444,9.0,1015.98,,,,,,,,,,,,,2020-10-15 20:31:36,PMS5003+PMS5003+BME280,,,False,False,False,0,,,,,,,False,4.07,4.22,3.9,6.1,7.8,4.88
64255,,37.775704,-122.416789,"18 10th St San Francisco, CA 1BD",inside,1.65,95.0,35.0,18.0,1008.86,,,,,,,,,,,,,2020-10-15 20:30:17,PMS5003+PMS5003+BME280,,,False,False,False,1,,,,,,,False,1.34,1.36,2.06,5.73,6.41,8.69
20679,,37.7142,-122.061163,"18417 Center Street, 94546",inside,1.01,91.0,32.77777777777778,22.0,999.67,,,,,,,,,,,,,2020-10-15 20:29:51,PMS5003+PMS5003+BME280,,,False,False,False,1,,,,,,,False,0.93,0.96,1.06,1.26,1.82,6.32
66165,,37.369252,-122.090311,1863 Golden Inside,inside,2.08,86.0,30.0,18.0,1011.8,,,,,,,,,,,,,2020-10-15 20:30:34,PMS5003+PMS5003+BME280,,,False,False,False,1,,,,,,,False,2.16,1.5,1.53,3.04,3.44,6.59
65161,,37.369936,-122.089871,1864 Van Buren Circle,outside,5.28,93.0,33.88888888888889,9.0,1010.79,,,,,,,,,,,,,2020-10-15 20:30:02,PMS5003+PMS5003+BME280,,,False,False,False,1,,,,,,,False,5.09,4.94,4.34,5.1,8.04,22.72
40821,,33.861106,-118.334631,187 House,outside,18.61,97.0,36.111111111111114,27.0,1011.75,,,,,,,,,,,,,2020-10-15 20:30:14,PMS5003+PMS5003+BME280,,,False,False,False,1,,,,,,,False,19.82,23.23,26.29,26.95,21.56,25.41
72053,,37.710672,-122.067927,"18736 Brickell Way, Castro Valley, California",inside,1.07,90.0,32.22222222222222,12.0,1002.96,,,,,,,,,,,,,2020-10-15 20:29:50,PMS5003+PMS5003+BME280,,,False,True,False,1,,,,,,,False,1.18,1.16,1.24,2.77,6.06,9.16
61893,,37.793832,-122.426199,1880 Jackson St (heather & cj),inside,2.53,93.0,33.88888888888889,19.0,1006.14,,,,,,,,,,,,,2020-10-15 20:30:36,PMS5003+PMS5003+BME280,,,False,True,False,1,,,,,,,False,2.63,2.72,3.16,4.27,4.9,11.99
62371,,37.762191,-122.397097,18th & Connecticut,outside,3.37,90.0,32.22222222222222,11.0,1012.78,,,,,,,,,,,,,2020-10-15 20:31:30,PMS5003+PMS5003+BME280,,,False,False,False,0,,,,,,,False,3.86,4.18,5.11,9.03,9.71,19.72
40505,,37.761847,-122.422368,18th & Valencia,inside,0.0,92.0,33.333333333333336,48.0,1013.64,,,,,,,,,,,,,2020-10-15 20:30:20,PMS5003+PMS5003+BME280,,,False,False,False,1,,,,,,,False,0.0,0.06,0.15,0.58,0.62,2.98
62875,,37.762174,-122.397111,18th and Connecticut (inside),inside,2.2,85.0,29.444444444444446,20.0,1012.5,,,,,,,,,,,,,2020-10-15 20:30:20,PMS5003+PMS5003+BME280,,,False,False,False,1,,,,,,,False,2.55,2.52,2.66,2.62,3.14,7.89
63513,,37.76239,-122.401865,18th and Rhode Island,outside,3.83,93.0,33.88888888888889,9.0,1012.39,,,,,,,,,,,,,2020-10-15 20:29:56,PMS5003+PMS5003+BME280,,,False,False,False,1,,,,,,,False,2.86,3.13,4.23,8.45,9.54,21.25
77671,,37.474494,-122.188694,"18th Ave, Menlo Park",inside,1.51,81.0,27.222222222222225,29.0,1014.98,,,,,,,,,,,,,2020-10-15 20:29:45,PMS5003+PMS5003+BME280,,,False,True,False,1,,,,,,,False,1.87,2.16,2.79,4.81,5.83,1.92
74931,,37.760636,-122.441977,18th St. between Hattie & Danvers,inside,2.49,94.0,34.44444444444444,15.0,1007.31,,,,,,,,,,,,,2020-10-15 20:30:49,PMS5003+PMS5003+BME280,,,False,False,False,0,,,,,,,False,2.85,3.19,3.62,5.05,5.81,4.78
71467,,37.511524,-122.306781,19 Davis drive,outside,1.69,98.0,36.66666666666667,8.0,998.29,,,,,,,,,,,,,2020-10-15 20:31:37,PMS5003+PMS5003+BME280,,,False,False,False,0,,,,,,,False,1.73,1.78,1.85,3.29,4.34,1.24
66121,,37.735949,-122.453616,19 Sherwood Court,inside,0.86,101.0,38.333333333333336,21.0,989.28,,,,,,,,,,,,,2020-10-15 20:29:47,PMS5003+PMS5003+BME280,,,False,False,False,1,,,,,,,False,0.68,0.77,0.84,1.8,3.42,10.04
39861,,37.889235,-122.275907,1907 Marin Ave,inside,0.0,92.0,33.333333333333336,17.0,1007.26,,,,,,,,,,,,,2020-10-15 20:31:11,PMS5003+PMS5003+BME280,,,False,False,False,0,,,,,,,False,0.19,0.32,0.46,1.18,2.33,4.9
58659,,37.889218,-122.27591,1907 Marin Ave Outside,outside,1.96,102.0,38.88888888888889,7.0,1007.34,,,,,,,,,,,,,2020-10-15 20:31:02,PMS5003+PMS5003+BME280,,,False,False,False,0,,,,,,,False,1.85,1.96,2.09,4.01,7.05,22.23
78231,,40.612753,-105.044865,"1909 Nedrah Drive, Fort Collins, CO  80524",inside,0.0,86.0,30.0,15.0,851.54,,,,,,,,,,,,,2020-10-15 20:30:17,PMS5003+PMS5003+BME280,,,False,False,False,1,,,,,,,False,0.0,0.0,0.0,2.44,6.02,2.55
66447,,37.977778,-122.541796,1945 5th SR,outside,1.21,107.0,41.66666666666667,4.0,1013.93,,,,,,,,,,,,,2020-10-15 20:30:33,PMS5003+PMS5003+BME280,,,False,False,False,1,,,,,,,False,1.36,1.96,2.82,5.43,6.32,15.36
71621,,37.883126,-122.200651,197 EL TOYONAL,outside,2.55,97.0,36.111111111111114,7.0,987.76,,,,,,,,,,,,,2020-10-15 20:30:14,PMS5003+PMS5003+BME280,,,False,False,False,1,,,,,,,False,1.99,1.93,2.01,3.14,5.73,16.17
18653,,36.800472,-119.786531,1990 E. GETTYSBURG #2,outside,16.89,81.0,27.222222222222225,35.0,1000.7,,,,,,,,,,,,,2019-11-18 21:31:40,PMS5003+PMS5003+BME280,,,False,False,False,478019,,,,,,,False,17.8,18.43,18.42,12.62,9.01,9.37
62233,,37.759462,-122.432664,19th & Noe,outside,3.16,89.0,31.666666666666668,12.0,1010.51,,,,,,,,,,,,,2020-10-15 20:30:14,PMS5003+PMS5003+BME280,,,False,False,False,1,,,,,,,False,3.21,3.49,4.26,7.79,9.07,22.08
65723,,37.758851,-122.434783,19th and Castro,outside,3.07,95.0,35.0,7.0,1010.69,,,,,,,,,,,,,2020-10-15 20:31:09,PMS5003+PMS5003+BME280,,,False,True,False,0,,,,,,,False,3.5,3.84,4.77,8.89,10.46,22.03
60569,,37.75957,-122.423448,19th and Guerrero,inside,3.14,82.0,27.77777777777778,36.0,1014.18,,,,,,,,,,,,,2020-10-15 20:30:15,PMS5003+PMS5003+BME280,,,False,False,False,1,,,,,,,False,3.03,3.53,4.21,5.41,3.86,3.71
22489,,37.813609,-122.285786,19th,outside,3.71,98.0,36.66666666666667,10.0,1015.53,,,,,,,,,,,,,2020-10-15 20:29:45,PMS5003+PMS5003+BME280,,,False,False,False,1,,,,,,,False,3.05,3.48,4.31,8.83,9.98,22.73
60519,,36.624322,-121.918725,19th Street,outside,5.28,92.0,33.333333333333336,24.0,1013.53,,,,,,,,,,,,,2020-10-15 20:30:45,PMS5003+PMS5003+BME280,,,False,False,False,0,,,,,,,False,4.73,4.8,5.85,11.29,11.46,18.74
74777,,37.761241,-122.397384,19thConn (w/Coway Purifiers),inside,0.0,86.0,30.0,31.0,1012.22,,,,,,,,,,,,,2020-10-15 20:31:36,PMS5003+PMS5003+BME280,,,False,False,False,0,,,,,,,False,0.0,0.0,0.03,0.2,0.45,0.82
78919,,36.617065,-121.828093,19yoZemite,outside,4.5,91.0,32.77777777777778,14.0,1008.4,,,,,,,,,,,,,2020-10-15 20:31:19,PMS5003+PMS5003+BME280,,,False,False,False,0,,,,,,,False,4.88,4.06,3.36,5.34,6.94,1.9
30809,,37.675259,21.438788,1o GYMNASIO,outside,3.22,74.0,23.333333333333336,53.0,1014.28,,,,,,,,,,,,,2020-10-15 20:31:03,PMS5003+PMS5003+BME280,,,False,False,False,0,,,,,,,False,3.43,3.94,4.13,4.38,5.34,9.0
30777,,40.548038,23.013295,1o Lykeio Thermis,outside,2.88,76.0,24.444444444444446,38.0,1011.24,,,,,,,,,,,,,2020-10-15 20:30:11,PMS5003+PMS5003+BME280,,,False,False,False,1,,,,,,,False,2.99,3.11,3.35,4.16,5.09,8.14
29749,,37.409138,126.714271,1SB01,inside,12.68,77.0,25.0,40.0,1018.17,,,,,,,,,,,,,2020-10-15 20:30:00,PMS5003+PMS5003+BME280,,,False,False,False,1,,,,,,,False,12.49,12.47,12.23,10.82,13.55,15.16
29879,,37.497933,126.775,1SB02,inside,0.98,86.0,30.0,31.0,1021.23,,,,,,,,,,,,,2020-10-15 20:31:31,PMS5003+PMS5003+BME280,,,False,False,False,0,,,,,,,False,0.85,1.18,1.19,1.16,2.41,4.52
46689,,37.451874,126.685749,1SB09,inside,13.18,84.0,28.88888888888889,26.0,1019.89,,,,,,,,,,,,,2020-10-05 14:58:53,PMS5003+PMS5003+BME280,,,False,False,False,14732,,,,,,,False,12.15,10.91,9.73,9.2,15.54,18.08
46655,,37.504049,126.884712,1SB12,inside,89.79,91.0,32.77777777777778,20.0,1020.0,,,,,,,,,,,,,2020-10-15 20:30:21,PMS5003+PMS5003+BME280,,,False,False,False,1,,,,,,,False,86.39,82.22,96.04,89.03,84.76,65.02
46665,,37.60016,126.65973,1SB13,inside,6.6,82.0,27.77777777777778,24.0,1022.51,,,,,,,,,,,,,2020-10-15 20:31:25,PMS5003+PMS5003+BME280,,,False,False,False,0,,,,,,,False,6.81,6.77,7.31,6.39,7.51,8.28
29739,,36.80509,127.11853,1SB19,inside,4.82,83.0,28.333333333333336,40.0,1013.97,,,,,,,,,,,,,2020-10-05 15:01:18,PMS5003+PMS5003+BME280,,,False,False,False,14730,,,,,,,False,4.83,4.69,4.52,5.95,11.59,17.13
78253,,37.013941,-121.574694,1st and Church,outside,2.38,97.0,36.111111111111114,6.0,1008.52,,,,,,,,,,,,,2020-10-15 20:30:49,PMS5003+PMS5003+BME280,,,False,False,False,0,,,,,,,False,2.56,3.48,5.02,7.25,8.19,2.58
65863,,38.317289,-122.263667,"1st Ave, Napa, 300ft elevation",outside,12.8,106.0,41.111111111111114,12.0,1010.46,,,,,,,,,,,,,2020-10-13 19:01:38,PMS5003+PMS5003+BME280,,,False,False,False,2970,,,,,,,False,12.46,12.6,13.23,12.53,14.34,28.75
65651,,38.317782,-122.263855,"1st Ave, Napa, 300ft elevation",inside,1.59,89.0,31.666666666666668,26.0,1006.35,,,,,,,,,,,,,2020-10-15 20:29:53,PMS5003+PMS5003+BME280,,,False,False,False,1,,,,,,,False,2.37,2.67,2.83,3.21,10.56,28.53
11648,,35.886805,-78.683313,1st Floor,inside,0.24,80.0,26.666666666666668,42.0,1001.1,,,,,,,,,,,,,2020-10-15 20:31:14,PMS5003+PMS5003+BME280,,,False,False,False,0,,,,,,,False,0.1,0.12,0.16,0.41,0.33,0.48
62245,,37.362596,-122.203469,"2 Oak Forest, Portola Valley",outside,3.34,94.0,34.44444444444444,8.0,996.47,,,,,,,,,,,,,2020-10-15 20:30:43,PMS5003+PMS5003+BME280,,,False,False,False,0,,,,,,,False,2.85,2.28,2.06,2.84,5.1,17.39
61175,,38.47471,-122.64818,2 squirrels,outside,14.66,106.0,41.111111111111114,8.0,1002.52,,,,,,,,,,,,,2020-10-15 20:31:18,PMS5003+PMS5003+BME280,,,False,False,False,0,,,,,,,False,14.73,16.98,20.07,17.83,13.71,32.76
12244,,47.402961,8.613511,2 Ueberlandstrasse 129,outside,10.96,55.0,12.777777777777779,57.0,966.25,,,,,,,,,,,,,2020-10-15 20:30:21,PMS5003+PMS5003+BME280,,,False,False,False,1,,,,,,,False,10.26,9.34,8.37,9.96,11.91,10.82
63817,,37.884716,-122.186966,2 Watchwood Court,inside,2.2,91.0,32.77777777777778,24.0,996.28,,,,,,,,,,,,,2020-10-15 20:31:13,PMS5003+PMS5003+BME280,,,False,False,False,0,,,,,,,False,2.56,3.11,2.94,1.25,1.14,2.68
51083,,42.605655,-71.569864,20 Broad Meadow rd,outside,3.75,86.0,30.0,24.0,1002.93,,,,,,,,,,,,,2020-10-15 20:31:23,PMS5003+PMS5003+BME280,,,False,False,False,0,,,,,,,False,3.66,3.53,3.89,5.39,4.05,5.79
20543,,37.571381,-122.319842,20 S Grant,outside,25.39,70.0,21.11111111111111,60.0,1014.62,,,,,,,,,,,,,2020-10-08 16:46:39,PMS5003+PMS5003+BME280,,,False,False,False,10305,,,,,,,False,14.19,21.27,27.39,34.24,30.96,29.79
72255,,38.103643,-122.622439,20 Verissimo,outside,2.24,95.0,35.0,8.0,1009.39,,,,,,,,,,,,,2020-10-15 20:30:20,PMS5003+PMS5003+BME280,,,False,True,False,1,,,,,,,False,2.98,3.7,6.94,11.93,8.77,11.99
49663,,37.783759,-122.390716,200 Brannan Courtyard,inside,0.15,87.0,30.555555555555557,30.0,1015.67,,,,,,,,,,,,,2020-10-15 20:31:11,PMS5003+PMS5003+BME280,,,False,False,False,0,,,,,,,False,0.09,0.14,0.33,0.68,0.73,3.7
20175,,37.789893,-122.427521,2000 California,outside,2.35,89.0,31.666666666666668,28.0,1005.67,,,,,,,,,,,,,2020-10-15 20:30:14,PMS5003+PMS5003+BME280,,,False,False,False,1,,,,,,,False,3.06,3.95,4.82,6.52,6.7,17.77
20439,,37.789886,-122.427529,2000 California St Inside,inside,2.59,93.0,33.88888888888889,18.0,1004.73,,,,,,,,,,,,,2020-10-15 20:30:34,PMS5003+PMS5003+BME280,,,False,False,False,1,,,,,,,False,2.51,2.6,2.84,3.4,3.49,8.17
49519,,36.168011,-86.735664,2005 Eastside Den,inside,1.07,89.0,31.666666666666668,36.0,998.33,,,,,,,,,,,,,2020-10-15 20:30:00,PMS5003+PMS5003+BME280,,,False,False,False,1,,,,,,,False,1.13,1.04,0.99,0.84,1.04,2.04
26777,,37.805537,-122.428402,201 Fort Mason Maintenance Office,inside,3.3,88.0,31.111111111111114,29.0,1013.13,,,,,,,,,,,,,2020-10-15 20:31:27,PMS5003+PMS5003+BME280,,,False,False,False,0,,,,,,,False,4.09,4.58,5.24,5.79,5.8,17.38
31771,,37.805364,-122.428493,201 NPS Headquarters,outside,2.71,95.0,35.0,14.0,1012.95,,,,,,,,,,,,,2020-10-15 19:38:31,PMS5003+PMS5003+BME280,,,False,False,False,53,,,,,,,False,3.39,5.52,7.57,8.74,8.52,19.41
63555,,37.866847,-122.299544,2010 EA,inside,3.86,84.0,28.88888888888889,28.0,1015.06,,,,,,,,,,,,,2020-10-15 20:29:42,PMS5003+PMS5003+BME280,,,False,False,False,1,,,,,,,False,4.63,5.58,6.73,8.46,7.22,6.21
20449,,37.786172,-122.434197,2040 Sutter,inside,10.24,87.0,30.555555555555557,32.0,1011.78,,,,,,,,,,,,,2020-10-15 08:29:27,PMS5003+PMS5003+BME280,,,False,True,False,722,,,,,,,False,10.41,10.43,10.31,7.44,6.89,11.45
63595,,37.461454,-122.144627,2043 Euclid,outside,3.05,105.0,40.55555555555556,4.0,1015.18,,,,,,,,,,,,,2020-10-15 20:31:18,PMS5003+PMS5003+BME280,,,False,False,False,0,,,,,,,False,3.44,4.01,3.73,5.03,7.38,14.62
50077,,34.149282,-119.195901,205 N Ventura Rd,outside,18.92,85.0,29.444444444444446,45.0,1014.14,,,,,,,,,,,,,2020-10-15 20:30:14,PMS5003+PMS5003+BME280,,,False,False,False,1,,,,,,,False,22.98,24.83,26.81,30.29,25.78,26.24
60305,,37.51673,-122.33975,"2067 New Brunswick Drive, San Mateo, CA 94402",outside,1.81,91.0,32.77777777777778,10.0,997.26,,,,,,,,,,,,,2020-10-15 20:30:20,PMS5003+PMS5003+BME280,,,False,False,False,1,,,,,,,False,1.69,1.78,1.89,3.41,5.32,23.5
43881,,37.43091,-122.140627,208,outside,4.1,90.0,32.22222222222222,14.0,1015.18,,,,,,,,,,,,,2020-10-15 20:31:22,PMS5003+PMS5003+BME280,,,False,False,False,0,,,,,,,False,4.12,4.14,3.96,5.9,8.46,23.44
11194,,35.732652,-78.850286,208 Center Street,outside,14.53,82.0,27.77777777777778,53.0,997.02,,,,,,,,,,,,,2020-10-15 20:29:42,PMS5003+PMS5003+BME280,,,False,False,False,1,,,,,,,False,15.27,15.34,14.19,10.43,9.73,11.35
75053,,37.87767,-122.471083,209 San Rafael Ave,outside,2.46,85.0,29.444444444444446,25.0,1016.33,,,,,,,,,,,,,2020-10-15 20:31:11,PMS5003+PMS5003+BME280,,,False,False,False,0,,,,,,,False,2.45,2.85,3.74,6.74,7.04,4.65
68809,,37.788053,-122.442059,20ate90,outside,3.77,101.0,38.333333333333336,6.0,1009.75,,,,,,,,,,,,,2020-10-15 20:28:55,PMS5003+PMS5003+BME280,,,False,False,False,2,,,,,,,False,3.41,4.07,5.4,8.54,8.72,12.37
64801,,37.75979,-122.400168,20th & Carolina,outside,2.72,98.0,36.66666666666667,12.0,1009.77,,,,,,,,,,,,,2020-10-15 20:30:50,PMS5003+PMS5003+BME280,,,False,False,False,0,,,,,,,False,2.39,2.7,3.74,7.36,8.39,14.19
75487,,45.498826,-122.645673,20TH & POWELL,inside,1.94,78.0,25.555555555555557,30.0,1033.49,,,,,,,,,,,,,2020-10-15 20:31:37,PMS5003+PMS5003+BME280,,,False,False,False,0,,,,,,,False,2.96,3.72,4.85,5.63,4.55,1.95
61157,,37.741234,-122.476475,20th/Ulloa,outside,2.33,91.0,32.77777777777778,10.0,1006.07,,,,,,,,,,,,,2020-10-15 20:31:30,PMS5003+PMS5003+BME280,,,False,False,False,0,,,,,,,False,2.57,2.68,3.06,5.54,7.1,18.62
57585,,40.704774,-73.94186,210 Scholes St,inside,3.41,83.0,28.333333333333336,37.0,1013.46,,,,,,,,,,,,,2020-10-15 20:31:32,PMS5003+PMS5003+BME280,,,False,True,False,0,,,,,,,False,5.03,6.11,6.06,9.14,17.88,12.43
74663,,37.744498,-122.433278,2123 Castro Street,inside,1.5,91.0,32.77777777777778,13.0,1004.62,,,,,,,,,,,,,2020-10-15 20:29:44,PMS5003+PMS5003+BME280,,,False,False,False,1,,,,,,,False,1.37,1.43,1.73,3.26,4.15,4.1
67713,,37.433461,-122.20742,2160 Cedar,inside,1.21,85.0,29.444444444444446,32.0,1011.6,,,,,,,,,,,,,2020-10-15 20:31:19,PMS5003+PMS5003+BME280,,,False,False,False,0,,,,,,,False,1.0,1.19,1.29,1.99,3.64,8.53
63691,,37.868835,-122.278363,2162 Jefferson,inside,1.38,89.0,31.666666666666668,17.0,1011.83,,,,,,,,,,,,,2020-10-15 20:29:46,PMS5003+PMS5003+BME280,,,False,True,False,1,,,,,,,False,1.88,2.06,2.28,5.54,6.09,8.82
16915,,37.762414,-122.418969,2169 Mission Street,outside,2.77,98.0,36.66666666666667,13.0,1013.32,,,,,,,,,,,,,2020-10-15 20:20:55,PMS5003+PMS5003+BME280,,,False,False,False,10,,,,,,,False,7.62,11.7,12.58,10.52,11.18,36.79
35151,,64.769383,-148.040246,2190 Cripple Creek Rd,outside,1.49,27.0,-2.7777777777777777,55.0,1001.27,,,,,,,,,,,,,2020-10-15 20:31:02,PMS5003+PMS5003+BME280,,,False,False,False,0,,,,,,,False,1.72,1.39,1.08,0.87,0.67,0.91
5506,,51.490536,-0.192964,21ECS,outside,3.34,55.0,12.777777777777779,63.0,1024.09,,,,,,,,,,,,,2020-10-15 20:29:57,PMS5003+PMS5003+BME280,,,False,False,False,1,,,,,,,False,4.65,5.34,5.15,3.85,5.88,7.55
17405,,37.757237,-122.413489,21st and Treat,inside,4.13,84.0,28.88888888888889,31.0,1014.29,,,,,,,,,,,,,2020-10-15 20:30:41,PMS5003+PMS5003+BME280,,,False,False,False,0,,,,,,,False,4.24,4.98,6.24,8.85,9.74,15.87
28669,,37.781653,-122.480114,21stAtClement,outside,8.38,91.0,32.77777777777778,23.0,1010.91,,,,,,,,,,,,,2020-10-15 20:30:59,PMS5003+PMS5003+BME280,,,False,False,False,0,,,,,,,False,7.8,6.62,6.66,9.09,8.82,19.87
64477,,37.905145,-122.563214,220 Rose Ave,outside,2.51,89.0,31.666666666666668,10.0,1003.22,,,,,,,,,,,,,2020-10-15 20:30:57,PMS5003+PMS5003+BME280,,,False,False,False,0,,,,,,,False,2.24,2.31,2.74,4.89,6.9,20.29
70201,,37.131769,-122.001798,22090 oak flat rd,outside,5.08,83.0,28.333333333333336,26.0,972.22,,,,,,,,,,,,,2020-10-15 03:00:18,PMS5003+PMS5003+BME280,,,False,False,False,1051,,,,,,,False,4.7,4.84,4.79,4.91,6.43,11.22
29109,,37.908992,-122.275857,223,inside,9.75,93.0,33.88888888888889,21.0,990.85,,,,,,,,,,,,,2020-10-15 20:31:28,PMS5003+PMS5003+BME280,,,False,False,False,0,,,,,,,False,10.17,5.2,3.51,3.05,3.47,5.16
28181,,44.748324,-85.646506,223 Historic Barns Park,inside,4.78,69.0,20.555555555555557,39.0,992.44,,,,,,,,,,,,,2020-10-01 19:58:54,PMS5003+PMS5003+BME280,,,False,False,False,20192,,,,,,,False,1.85,0.96,0.58,0.49,3.05,6.02
73053,,37.525559,-122.345845,2233 Bunker Hill,inside,44.03,85.0,29.444444444444446,26.0,1002.34,,,,,,,,,,,,,2020-10-15 20:30:17,PMS5003+PMS5003+BME280,,,False,False,False,1,,,,,,,False,20.88,16.39,14.93,7.09,4.81,12.3
57905,,37.525625,-122.345941,2233 Bunker Hill Dr,outside,0.95,113.0,45.0,3.0,1001.76,,,,,,,,,,,,,2020-10-15 20:30:08,PMS5003+PMS5003+BME280,,,False,False,False,1,,,,,,,False,0.9,1.24,1.55,3.29,4.72,17.46
51533,,45.894701,-93.03245,22685 Contrast Rd,outside,2.16,55.0,12.777777777777779,26.0,980.43,,,,,,,,,,,,,2020-10-15 20:31:03,PMS5003+PMS5003+BME280,,,False,False,False,0,,,,,,,False,1.57,1.42,1.3,1.11,2.61,5.44
71139,,37.909524,-122.072034,2272 hillside ct,inside,1.36,92.0,33.333333333333336,21.0,1009.85,,,,,,,,,,,,,2020-10-15 20:31:30,PMS5003+PMS5003+BME280,,,False,False,False,0,,,,,,,False,1.46,2.36,2.74,2.15,2.47,3.88
19945,,37.796142,-122.22725,22nd Ave,inside,0.83,94.0,34.44444444444444,17.0,1007.99,,,,,,,,,,,,,2020-10-15 20:29:50,PMS5003+PMS5003+BME280,,,False,False,False,1,,,,,,,False,0.92,4.46,5.9,4.3,5.76,9.84
45639,,-33.854888,151.186087,23 Thames st balmain,outside,5.3,74.0,23.333333333333336,54.0,1017.71,,,,,,,,,,,,,2020-10-15 20:31:18,PMS5003+PMS5003+BME280,,,False,False,False,0,,,,,,,False,5.23,5.57,6.28,6.79,5.86,5.5
77621,,37.716178,-122.188274,2300 Davis St,outside,3.22,94.0,34.44444444444444,6.0,1016.26,,,,,,,,,,,,,2020-10-15 20:31:25,PMS5003+PMS5003+BME280,,,False,True,False,0,,,,,,,False,2.22,2.3,3.07,7.63,9.39,3.51
71153,,37.519636,-122.30095,2308,inside,0.53,86.0,30.0,22.0,998.73,,,,,,,,,,,,,2020-10-15 20:31:35,PMS5003+PMS5003+BME280,,,False,False,False,0,,,,,,,False,0.99,1.29,1.39,1.41,2.01,3.19
18419,,37.854828,-122.261244,2320,inside,3.07,85.0,29.444444444444446,33.0,1009.05,,,,,,,,,,,,,2020-10-15 20:30:12,PMS5003+PMS5003+BME280,,,False,False,False,1,,,,,,,False,3.36,2.99,2.71,3.64,4.63,4.87
74095,,37.863606,-122.2619,2320 Blake Street,outside,1.17,93.0,33.88888888888889,8.0,1009.63,,,,,,,,,,,,,2020-10-15 20:30:46,PMS5003+PMS5003+BME280,,,False,False,False,0,,,,,,,False,1.63,1.94,2.17,4.76,7.56,10.1
72089,,37.277218,-122.067169,"23555 Mount Eden Rd, Saratoga",outside,2.66,88.0,31.111111111111114,9.0,982.19,,,,,,,,,,,,,2020-10-15 20:29:48,PMS5003+PMS5003+BME280,,,False,False,False,1,,,,,,,False,3.77,2.91,2.36,2.84,5.41,11.63
72877,,37.840584,-122.229508,236 Florence,inside,0.29,86.0,30.0,21.0,998.61,,,,,,,,,,,,,2020-10-15 20:30:04,PMS5003+PMS5003+BME280,,,False,False,False,1,,,,,,,False,0.43,0.95,1.28,2.92,4.35,5.08
22265,,37.43054,-122.139098,2366 Ramona St.,inside,2.05,86.0,30.0,25.0,1015.81,,,,,,,,,,,,,2020-10-15 20:30:37,PMS5003+PMS5003+BME280,,,False,False,False,1,,,,,,,False,2.06,1.84,1.73,2.63,4.13,4.55
67417,,37.528054,-122.29789,238 41st Ave,outside,2.13,93.0,33.88888888888889,9.0,1009.23,,,,,,,,,,,,,2020-10-15 20:30:45,PMS5003+PMS5003+BME280,,,False,False,False,0,,,,,,,False,2.15,2.16,2.35,4.35,6.64,15.54
19335,,37.785605,-122.482905,23rd & Lake,outside,9.59,86.0,30.0,29.0,1012.17,,,,,,,,,,,,,2020-10-15 20:29:43,PMS5003+PMS5003+BME280,,,False,False,False,1,,,,,,,False,9.02,7.78,7.62,9.52,8.93,19.99
69499,,37.755518,-122.388244,23rd and 3rd (Inside),inside,3.77,90.0,32.22222222222222,11.0,1014.68,,,,,,,,,,,,,2020-10-15 20:30:50,PMS5003+PMS5003+BME280,,,False,False,False,0,,,,,,,False,4.12,3.68,4.47,7.12,6.98,8.26
69509,,37.755448,-122.388263,23rd and 3rd (Outside),outside,2.98,118.0,47.77777777777778,1.0,1014.3,,,,,,,,,,,,,2020-10-15 20:30:24,PMS5003+PMS5003+BME280,,,False,False,False,1,,,,,,,False,3.07,3.41,5.09,10.5,10.55,15.05
6396,,37.982463,-122.575943,24 Fern Lane,outside,2.4,94.0,34.44444444444444,12.0,1013.25,,,,,,,,,,,,,2020-10-15 20:30:14,PMS5003+PMS5003+BME280,,,False,False,False,1,,,,,,,False,2.07,2.3,3.04,5.19,6.28,15.16
36597,,41.891479,-87.620807,240 E. Illinois St.,inside,4.5,74.0,23.333333333333336,38.0,984.27,,,,,,,,,,,,,2020-09-24 22:02:14,PMS5003+PMS5003+BME280,,,False,False,False,30149,,,,,,,False,5.96,7.08,8.87,9.1,6.42,4.06
36217,,37.578544,-122.345307,240 Lorton,outside,3.11,91.0,32.77777777777778,11.0,1013.4,,,,,,,,,,,,,2020-10-15 20:31:34,PMS5003+PMS5003+BME280,,,False,False,False,0,,,,,,,False,2.97,2.91,3.43,7.49,9.85,24.94
65965,,37.357589,-122.10359,"24151 Young court, Los Altos, CA 94024",outside,5.09,96.0,35.55555555555556,7.0,1009.23,,,,,,,,,,,,,2020-10-15 20:30:24,PMS5003+PMS5003+BME280,,,False,False,False,1,,,,,,,False,5.02,4.44,3.9,4.53,7.42,20.4
73287,,37.858569,-122.257479,2436 home,inside,3.88,83.0,28.333333333333336,35.0,1009.14,,,,,,,,,,,,,2020-10-15 20:30:19,PMS5003+PMS5003+BME280,,,False,False,False,1,,,,,,,False,3.32,3.48,3.5,3.8,5.13,7.5
74131,,37.785599,-122.3974,246 2nd St,inside,6.91,95.0,35.0,13.0,1010.37,,,,,,,,,,,,,2020-10-15 20:29:45,PMS5003+PMS5003+BME280,,,False,False,False,1,,,,,,,False,6.22,5.57,5.87,8.26,7.85,2.2
62469,,37.741024,-122.489218,2478 32nd Avenue,outside,7.57,94.0,34.44444444444444,12.0,1010.17,,,,,,,,,,,,,2020-10-15 20:30:13,PMS5003+PMS5003+BME280,,,False,True,False,1,,,,,,,False,5.07,3.75,3.83,7.53,8.56,18.47
20709,,37.751396,-122.436945,24th and Diamond,outside,2.47,89.0,31.666666666666668,18.0,1006.52,,,,,,,,,,,,,2020-10-15 20:31:10,PMS5003+PMS5003+BME280,,,False,False,False,0,,,,,,,False,3.86,4.22,4.5,6.91,7.9,22.79
61877,,37.784041,-122.484126,24th Ave at California St indoors,inside,1.17,96.0,35.55555555555556,31.0,1011.63,,,,,,,,,,,,,2020-10-15 20:29:53,PMS5003+PMS5003+BME280,,,False,False,False,1,,,,,,,False,0.9,1.19,1.58,2.2,1.89,3.53
21269,,37.757645,-122.44284,25 Short Street / Kite Hill (exterior),outside,1.59,88.0,31.111111111111114,17.0,670.99,,,,,,,,,,,,,2020-10-15 20:30:23,PMS5003+PMS5003+BME280,,,False,False,False,1,,,,,,,False,2.23,2.64,3.29,5.8,7.21,22.47
40635,,34.043617,-118.487451,25 street (3),inside,2.32,85.0,29.444444444444446,28.0,1004.31,,,,,,,,,,,,,2020-10-15 20:31:23,PMS5003+PMS5003+BME280,,,False,False,False,0,,,,,,,False,2.57,2.41,1.98,2.01,1.96,3.66
23965,,37.85431,-122.256007,2509 Prince St ,outside,8.33,72.0,22.22222222222222,48.0,1010.88,,,,,,,,,,,,,2020-10-15 04:43:49,PMS5003+PMS5003+BME280,,,False,False,False,947,,,,,,,False,8.34,8.36,7.73,6.61,7.87,22.38
4541,,38.574463,-109.545786,252 East 100 North,outside,1.02,86.0,30.0,8.0,881.6,,,,,,,,,,,,,2020-10-15 20:31:22,PMS5003+PMS5003+BME280,,,False,False,False,0,,,,,,,False,0.81,0.81,0.93,1.74,3.76,10.56
72555,,37.857806,-122.483727,252 San Carlos Avenue,outside,14.55,64.0,17.77777777777778,66.0,1016.32,,,,,,,,,,,,,2020-10-06 17:02:15,PMS5003+PMS5003+BME280,,,False,False,False,13169,,,,,,,False,14.98,14.11,13.72,17.63,24.85,13.16
33653,,43.254591,-79.863272,254 wellington st n,outside,2.18,56.0,13.333333333333334,70.0,1002.42,,,,,,,,,,,,,2020-10-15 20:30:36,PMS5003+PMS5003+BME280,,,False,False,False,1,,,,,,,False,1.94,1.96,2.14,3.37,4.36,8.14
28907,,40.290927,-79.803806,"256 Lexington Drive, Elizabeth Township, 15135",outside,9.33,76.0,24.444444444444446,36.0,974.19,,,,,,,,,,,,,2020-10-15 20:30:00,PMS5003+PMS5003+BME280,,,False,False,False,1,,,,,,,False,9.26,8.72,8.48,5.41,5.25,9.07
69057,,,,"258 N Merrill Ave, Glendive, MT",outside,23.12,79.0,26.11111111111111,40.0,1006.11,,,,,,,,,,,,,2020-10-06 20:24:38,PMS5003+PMS5003+BME280,,,False,False,False,12967,,,,,,,False,22.2,20.24,18.57,19.18,14.97,6.89
63199,,45.551619,-73.593599,2586 St Zotique East,outside,5.02,58.0,14.444444444444445,59.0,1020.77,,,,,,,,,,,,,2020-10-04 14:20:40,PMS5003+PMS5003+BME280,,,False,False,False,16210,,,,,,,False,6.7,10.7,12.92,10.86,8.37,7.66
20989,,37.74915,-122.442598,25th & Grandview,outside,1.57,107.0,41.66666666666667,7.0,998.6,,,,,,,,,,,,,2020-10-15 20:31:27,PMS5003+PMS5003+BME280,,,False,False,False,0,,,,,,,False,2.15,2.42,3.06,5.93,8.03,22.89
36381,,37.750386,-122.421555,25th and San Jose,outside,2.37,117.0,47.22222222222222,4.0,1011.54,,,,,,,,,,,,,2020-10-15 20:30:22,PMS5003+PMS5003+BME280,,,False,False,False,1,,,,,,,False,2.12,2.76,3.95,7.33,7.84,19.57
34653,,34.038909,-118.482316,25TH ST. SANTA MONICA,outside,26.67,88.0,31.111111111111114,33.0,1004.93,,,,,,,,,,,,,2020-10-15 20:30:13,PMS5003+PMS5003+BME280,,,False,False,False,1,,,,,,,False,26.81,27.63,26.89,24.47,23.45,30.48
57553,,34.043555,-118.487495,25th Street,inside,2.93,86.0,30.0,27.0,1003.11,,,,,,,,,,,,,2020-10-15 20:31:18,PMS5003+PMS5003+BME280,,,False,False,False,0,,,,,,,False,4.05,4.05,3.38,2.41,2.27,4.14
34519,,34.043484,-118.487608,25th Street(2),outside,23.07,94.0,34.44444444444444,27.0,1002.86,,,,,,,,,,,,,2020-10-15 20:29:43,PMS5003+PMS5003+BME280,,,False,False,False,1,,,,,,,False,22.61,23.73,23.1,20.5,19.86,27.25
60811,,37.744004,-122.482569,25_OUTER,outside,2.22,96.0,35.55555555555556,10.0,1004.37,,,,,,,,,,,,,2020-10-15 20:31:26,PMS5003+PMS5003+BME280,,,False,False,False,0,,,,,,,False,2.33,2.5,2.95,5.5,7.44,15.94
46617,,37.777698,-122.198771,2600 Best Ave Inside,inside,2.68,89.0,31.666666666666668,22.0,1009.42,,,,,,,,,,,,,2020-10-15 20:31:17,PMS5003+PMS5003+BME280,,,False,False,False,0,,,,,,,False,2.56,2.85,3.43,4.91,5.5,17.43
46331,,37.777814,-122.198681,2600 Best Ave Outside,outside,0.64,95.0,35.0,8.0,1008.92,,,,,,,,,,,,,2020-10-15 20:30:15,PMS5003+PMS5003+BME280,,,False,False,False,1,,,,,,,False,0.98,1.35,1.75,5.35,9.24,28.19
15669,,38.088906,-122.518002,263 Montego Key,outside,0.48,100.0,37.77777777777778,14.0,1015.93,,,,,,,,,,,,,2020-10-15 20:30:22,PMS5003+PMS5003+BME280,,,False,False,False,1,,,,,,,False,1.08,1.98,4.85,9.33,7.64,23.05
56559,,40.838867,-73.847899,2630 Benson Ave Indoors,inside,3.24,75.0,23.88888888888889,50.0,1014.12,,,,,,,,,,,,,2020-10-15 20:29:36,PMS5003+PMS5003+BME280,,,False,False,False,2,,,,,,,False,3.37,3.76,4.15,4.52,4.33,7.14
62561,,37.81584,-122.26871,"2633 Telegraph Ave, #305, Oakland CA 94612",inside,2.96,93.0,33.88888888888889,12.0,1014.53,,,,,,,,,,,,,2020-10-15 20:31:11,PMS5003+PMS5003+BME280,,,False,False,False,0,,,,,,,False,3.91,4.61,4.49,5.19,5.87,7.01
60447,,37.628678,-122.103053,2648 Naples St,outside,7.61,122.0,50.0,5.0,961.73,,,,,,,,,,,,,2020-10-13 17:54:36,PMS5003+PMS5003+BME280,,,False,False,False,3037,,,,,,,False,9.44,10.29,10.98,13.99,20.12,8.2
63701,,36.983162,-122.040587,266 Meadow Rd,inside,2.47,85.0,29.444444444444446,24.0,1006.42,,,,,,,,,,,,,2020-10-15 20:30:38,PMS5003+PMS5003+BME280,,,False,False,False,1,,,,,,,False,3.65,3.79,3.84,5.48,6.87,11.97
65839,,37.54101,-122.3143,26th and Alameda (outside),inside,2.09,81.0,27.222222222222225,36.0,1014.8,,,,,,,,,,,,,2020-10-15 20:30:29,PMS5003+PMS5003+BME280,,,False,False,False,1,,,,,,,False,1.95,1.91,2.07,2.48,4.15,8.63
43861,,37.782358,-122.485684,26TH Ave Apartments LLC,inside,2.42,83.0,28.333333333333336,43.0,1010.88,,,,,,,,,,,,,2020-10-15 20:30:58,PMS5003+PMS5003+BME280,,,False,False,False,0,,,,,,,False,2.58,2.85,3.27,6.91,7.13,7.14
67997,,37.903744,-122.510986,27 Eagle Rock Road,outside,3.7,86.0,30.0,11.0,1003.25,,,,,,,,,,,,,2020-10-15 20:29:49,PMS5003+PMS5003+BME280,,,False,False,False,1,,,,,,,False,3.13,3.09,3.55,6.05,7.69,14.38
44089,,37.769415,-122.435321,27 Scott,outside,1.39,,,,,,,,,,,,,,,,,2020-10-15 20:30:00,PMS5003+PMS5003+BME280,,,False,False,False,1,,,,,,,False,2.06,2.51,3.24,6.27,7.14,19.46
76999,,37.763001,-122.396399,271 MO,inside,0.12,85.0,29.444444444444446,19.0,1013.06,,,,,,,,,,,,,2020-10-15 20:29:59,PMS5003+PMS5003+BME280,,,False,False,False,1,,,,,,,False,0.66,0.65,1.68,6.54,6.59,2.34
26799,,37.801941,-122.423388,2727 Polk street,inside,0.46,85.0,29.444444444444446,25.0,1010.91,,,,,,,,,,,,,2020-10-15 20:30:21,PMS5003+PMS5003+BME280,,,False,False,False,1,,,,,,,False,0.63,0.87,1.53,2.11,1.69,2.8
78113,,45.543336,-122.63826,27th-Stanton,inside,4.54,83.0,28.333333333333336,26.0,1029.01,,,,,,,,,,,,,2020-10-15 20:30:28,PMS5003+PMS5003+BME280,,,False,False,False,1,,,,,,,False,3.93,4.55,5.84,6.39,6.32,2.06
33157,,37.336608,-121.844321,280 & 101 downwind,outside,3.76,99.0,37.22222222222222,10.0,1011.83,,,,,,,,,,,,,2020-10-15 20:30:48,PMS5003+PMS5003+BME280,,,False,False,False,0,,,,,,,False,3.17,3.01,3.57,7.3,10.19,25.59
74143,,37.436124,-122.146802,280 Lowell Ave,outside,4.62,79.0,26.11111111111111,45.0,1015.42,,,,,,,,,,,,,2020-10-10 21:51:18,PMS5003+PMS5003+BME280,,,False,False,False,7120,,,,,,,False,26.72,69.98,73.39,25.97,7.36,1.09
35307,,32.798355,-117.117122,2819 W CANYON AVE,outside,22.0,100.0,37.77777777777778,18.0,1006.29,,,,,,,,,,,,,2020-10-15 20:31:33,PMS5003+PMS5003+BME280,,,False,False,False,0,,,,,,,False,22.38,21.15,19.83,18.25,16.8,23.28
1517,,34.059919,-118.287979,2857 W. 7th Street,outside,28.16,102.0,38.88888888888889,19.0,1004.33,,,,,,,,,,,,,2020-10-15 20:30:50,PMS5003+PMS5003+BME280,,,False,False,False,0,,,,,,,False,29.11,29.74,30.35,31.0,26.99,32.18
63811,,37.811929,-122.25761,286 Lenox Ave.,inside,1.87,90.0,32.22222222222222,14.0,1012.34,,,,,,,,,,,,,2020-10-15 20:30:51,PMS5003+PMS5003+BME280,,,False,False,False,0,,,,,,,False,1.77,1.97,2.18,5.29,8.09,10.34
22523,,37.744825,-122.430673,28th between Sanchez and Noe,outside,4.22,108.0,42.22222222222222,8.0,1007.7,,,,,,,,,,,,,2020-10-15 20:31:39,PMS5003+PMS5003+BME280,,,False,False,False,0,,,,,,,False,2.59,2.55,3.26,6.65,7.56,20.87
69257,,37.745341,-122.429781,28th St.,outside,2.21,93.0,33.88888888888889,8.0,1009.81,,,,,,,,,,,,,2020-10-15 20:30:30,PMS5003+PMS5003+BME280,,,False,False,False,1,,,,,,,False,2.86,3.25,4.05,7.83,8.76,14.24
71237,,37.745003,-122.43473,28th Street at Diamond (Inside),inside,2.36,93.0,33.88888888888889,10.0,1001.98,,,,,,,,,,,,,2020-10-15 20:30:30,PMS5003+PMS5003+BME280,,,False,False,False,1,,,,,,,False,2.18,2.24,2.42,2.65,2.91,3.41
71579,,37.745037,-122.434737,28th Street at Diamond (Outside),outside,2.57,100.0,37.77777777777778,6.0,1001.46,,,,,,,,,,,,,2020-10-15 20:31:37,PMS5003+PMS5003+BME280,,,False,False,False,0,,,,,,,False,3.05,3.27,3.98,6.92,8.0,13.63
10806,,40.007743,-105.269811,2905 College Ave 6020,inside,4.96,78.0,25.555555555555557,15.0,843.12,,,,,,,,,,,,,2020-10-15 20:31:27,PMS5003+PMS5003+BME280,,,False,True,False,0,,,,,,,False,4.96,4.43,4.1,1.87,4.12,9.36
27023,,40.007635,-105.256428,2905 College Ave 7A17,inside,4.19,79.0,26.11111111111111,15.0,842.3,,,,,,,,,,,,,2020-10-15 20:30:33,PMS5003+PMS5003+BME280,,,False,True,False,1,,,,,,,False,3.8,3.4,3.38,1.71,4.12,9.2
10238,,40.007681,-105.256316,2905 College Ave B18F,inside,0.0,83.0,28.333333333333336,31.0,844.13,,,,,,,,,,,,,2020-09-29 15:29:03,PMS5003+PMS5003+BME280,,,False,True,False,23342,,,,,,,False,0.0,0.0,0.2,11.48,13.46,18.71
26801,,40.00754,-105.256355,2905 College Ave B3E2,inside,0.63,85.0,29.444444444444446,29.0,843.98,,,,,,,,,,,,,2020-09-29 15:28:47,PMS5003+PMS5003+BME280,,,False,True,False,23342,,,,,,,False,0.07,0.02,0.23,11.68,13.22,18.35
12959,,41.484917,-81.70841,2915 Jay Avenue,outside,1.27,59.0,15.0,58.0,990.89,,,,,,,,,,,,,2020-10-15 20:30:21,PMS5003+PMS5003+BME280,,,False,False,True,1,,,,,,,False,1.54,1.6,1.64,2.56,4.93,10.39
19881,,37.45401,-122.168893,"298 Waverley St, Menlo Park, CA",inside,13.85,88.0,31.111111111111114,28.0,1013.34,,,,,,,,,,,,,2020-10-15 20:30:29,PMS5003+PMS5003+BME280,,,False,False,False,1,,,,,,,False,20.95,15.38,11.44,5.32,4.59,4.76
26565,,37.788333,-122.393759,299 Fremont Street,inside,0.78,90.0,32.22222222222222,17.0,1013.35,,,,,,,,,,,,,2020-10-15 20:30:58,PMS5003+PMS5003+BME280,,,False,True,False,0,,,,,,,False,0.56,0.58,0.82,2.07,2.74,2.81
23105,,37.761618,-122.488318,29th Ave and Judah,outside,3.59,97.0,36.111111111111114,13.0,1008.84,,,,,,,,,,,,,2020-10-15 20:31:31,PMS5003+PMS5003+BME280,,,False,False,False,0,,,,,,,False,2.61,2.68,3.72,7.82,11.36,21.64
58033,,-34.880072,138.709114,2a Austin Avenue Athestone,outside,1.12,66.0,18.88888888888889,51.0,986.21,,,,,,,,,,,,,2020-10-09 01:28:18,PMS5003+PMS5003+BME280,,,False,False,False,9783,,,,,,,False,1.33,1.28,1.45,1.08,1.37,2.15
23465,,37.257297,-121.98924,2c,inside,2.18,91.0,32.77777777777778,19.0,1002.22,,,,,,,,,,,,,2020-10-15 20:30:32,PMS5003+PMS5003+BME280,,,False,False,False,1,,,,,,,False,4.44,5.94,4.46,1.33,1.11,3.34
43569,,,,2CF4320B24B5,outside,4.47,71.0,21.666666666666668,33.0,976.17,,,,,,,,,,,,,2020-10-15 20:30:08,PMS5003+PMS5003+BME280,,,False,False,False,1,,,,,,,False,5.77,6.61,6.86,5.55,9.52,48.21
58135,,42.884383,-71.973251,2cker,outside,3.18,89.0,31.666666666666668,24.0,985.61,,,,,,,,,,,,,2020-10-15 20:31:26,PMS5003+PMS5003+BME280,,,False,False,False,0,,,,,,,False,2.99,3.29,3.76,5.08,3.92,5.5
17981,,38.119292,-121.251865,2L82PAY,inside,6.63,90.0,32.22222222222222,21.0,1014.11,,,,,,,,,,,,,2020-10-15 20:30:31,PMS5003+PMS5003+BME280,,,False,False,False,1,,,,,,,False,7.03,5.86,5.04,4.03,7.81,41.17
48515,,35.886511,-78.683319,2nd floor,inside,0.13,83.0,28.333333333333336,38.0,999.59,,,,,,,,,,,,,2020-10-15 20:29:59,PMS5003+PMS5003+BME280,,,False,False,False,1,,,,,,,False,0.06,0.07,0.08,0.1,0.09,0.13
30741,,40.545688,23.023117,2o Dhmotiko Thermis,outside,8.63,76.0,24.444444444444446,35.0,1010.77,,,,,,,,,,,,,2020-10-15 20:31:12,PMS5003+PMS5003+BME280,,,False,False,False,0,,,,,,,False,32.46,36.79,33.92,15.8,9.95,11.79
30875,,40.468043,22.964738,2o Dimotiko Trilofou,outside,4.47,72.0,22.22222222222222,49.0,1002.91,,,,,,,,,,,,,2020-10-15 20:30:55,PMS5003+PMS5003+BME280,,,False,False,False,0,,,,,,,False,4.23,4.1,3.94,4.67,7.24,16.57
31131,,40.465755,22.992308,2o Nipiagogio Kardias,outside,2.74,69.0,20.555555555555557,51.0,996.44,,,,,,,,,,,,,2020-10-15 20:30:36,PMS5003+PMS5003+BME280,,,False,False,False,1,,,,,,,False,3.26,3.35,3.3,3.32,4.9,8.86
70767,,37.691117,-122.03717,2pigs,inside,1.0,82.0,27.77777777777778,29.0,997.79,,,,,,,,,,,,,2020-10-15 20:30:24,PMS5003+PMS5003+BME280,,,False,False,False,1,,,,,,,False,1.34,1.33,1.27,1.17,2.73,5.35
67383,,38.056456,-122.705837,3 Nicasio creek rd,outside,1.91,98.0,36.66666666666667,9.0,1002.61,,,,,,,,,,,,,2020-10-15 20:31:02,PMS5003+PMS5003+BME280,,,False,False,False,0,,,,,,,False,2.0,2.68,4.36,7.3,6.83,14.83
49093,,42.278696,-122.722845,3 pines inside,inside,0.06,84.0,28.88888888888889,25.0,908.37,,,,,,,,,,,,,2020-10-15 20:30:59,PMS5003+PMS5003+BME280,,,False,False,False,0,,,,,,,False,0.14,0.14,0.15,0.26,1.11,4.73
69997,,38.02787,-122.583117,30 Maoli,outside,2.03,106.0,41.111111111111114,4.0,1004.53,,,,,,,,,,,,,2020-10-15 20:31:09,PMS5003+PMS5003+BME280,,,False,False,False,0,,,,,,,False,2.43,2.53,3.32,6.13,6.89,14.7
65231,,37.763795,-122.432413,30 Pond,outside,3.88,90.0,32.22222222222222,12.0,1009.04,,,,,,,,,,,,,2020-10-15 20:30:40,PMS5003+PMS5003+BME280,,,False,False,False,0,,,,,,,False,4.03,4.46,5.7,10.27,11.18,20.36
24127,,37.876345,-122.246899,30-126,inside,0.37,83.0,28.333333333333336,14.0,983.13,,,,,,,,,,,,,2020-10-15 20:31:30,PMS5003+PMS5003+BME280,,,False,False,False,0,,,,,,,False,0.23,0.28,0.34,1.11,2.65,16.4
24141,,37.876356,-122.246983,30-2(TV),inside,0.24,86.0,30.0,15.0,982.85,,,,,,,,,,,,,2020-10-15 20:29:42,PMS5003+PMS5003+BME280,,,False,False,False,1,,,,,,,False,0.14,0.13,0.16,0.83,2.34,14.44
24029,,37.876586,-122.246977,30-Third Floor,inside,0.24,82.0,27.77777777777778,17.0,982.75,,,,,,,,,,,,,2020-10-15 20:30:36,PMS5003+PMS5003+BME280,,,False,False,False,1,,,,,,,False,0.19,0.24,0.29,0.99,2.44,15.53
62291,,37.737558,-122.428863,300 Block of Laidley,outside,1.07,107.0,41.66666666666667,5.0,1005.11,,,,,,,,,,,,,2020-10-15 20:31:29,PMS5003+PMS5003+BME280,,,False,False,False,0,,,,,,,False,1.65,1.87,2.66,6.72,7.94,12.86
66233,,37.458359,-122.156576,300 BLOCK POPE STREET MENLO PARK,outside,1.96,115.0,46.111111111111114,2.0,1015.64,,,,,,,,,,,,,2020-10-15 20:30:16,PMS5003+PMS5003+BME280,,,False,False,False,1,,,,,,,False,2.94,2.98,2.91,4.77,7.12,16.11
41075,,37.775744,-122.394024,301 king,inside,1.03,96.0,35.55555555555556,26.0,1013.76,,,,,,,,,,,,,2020-10-15 20:31:35,PMS5003+PMS5003+BME280,,,False,False,False,0,,,,,,,False,0.65,0.87,1.13,1.21,0.93,2.06
74425,,38.070247,-122.221762,301 Waterview Terrace,inside,0.0,91.0,32.77777777777778,23.0,1006.62,,,,,,,,,,,,,2020-10-15 20:30:21,PMS5003+PMS5003+BME280,,,False,True,False,1,,,,,,,False,0.02,0.02,0.12,0.98,1.37,2.26
71053,,38.563131,-121.714011,3010 Bryant Pl.,inside,0.62,90.0,32.22222222222222,20.0,1015.77,,,,,,,,,,,,,2020-10-15 20:30:33,PMS5003+PMS5003+BME280,,,False,True,False,1,,,,,,,False,1.34,1.36,1.05,2.35,3.65,9.02
78105,,34.002533,-118.474246,3014 7th Street,inside,2.02,86.0,30.0,29.0,1013.05,,,,,,,,,,,,,2020-10-15 20:30:34,PMS5003+PMS5003+BME280,,,False,False,False,1,,,,,,,False,1.98,2.04,2.23,3.4,4.56,1.65
61577,,37.557649,-122.345779,301Ascot,outside,1.98,93.0,33.88888888888889,11.0,1010.1,,,,,,,,,,,,,2020-10-15 20:30:17,PMS5003+PMS5003+BME280,,,False,False,False,1,,,,,,,False,2.02,2.16,2.39,4.47,6.0,20.42
74165,,37.388718,-122.245281,302 old la honda road,outside,3.86,75.0,23.88888888888889,38.0,1001.16,,,,,,,,,,,,,2020-10-06 14:51:43,PMS5003+PMS5003+BME280,,,False,False,False,13299,,,,,,,False,4.58,4.94,5.15,4.61,4.23,1.08
55305,,38.557275,-123.26459,"30600 Seaview Rd Cazadero, CA 95421",outside,12.6,96.0,35.55555555555556,13.0,979.76,,,,,,,,,,,,,2020-10-15 20:31:26,PMS5003+PMS5003+BME280,,,False,False,False,0,,,,,,,False,15.85,22.17,25.58,23.65,12.14,18.63
25611,,37.284032,-121.853883,3069 Jayhawkers Pl (in),inside,1.18,87.0,30.555555555555557,25.0,1003.33,,,,,,,,,,,,,2020-10-15 20:30:19,PMS5003+PMS5003+BME280,,,False,False,False,1,,,,,,,False,1.1,1.37,1.71,1.99,1.5,2.66
38295,,37.283553,-121.853952,3069 Jayhawkers Pl,outside,2.41,112.0,44.44444444444444,5.0,1002.88,,,,,,,,,,,,,2020-10-15 20:30:20,PMS5003+PMS5003+BME280,,,False,False,False,1,,,,,,,False,2.62,2.51,2.54,4.99,8.09,26.03
63209,,37.569207,-122.316151,"308 South Humboldt Street, San Mateo, CA",inside,0.6,81.0,27.222222222222225,25.0,1016.68,,,,,,,,,,,,,2020-10-15 20:31:13,PMS5003+PMS5003+BME280,,,False,False,False,0,,,,,,,False,0.82,1.0,1.83,4.26,4.24,6.76
61591,,37.562371,-122.318676,309A 8th Ave,outside,1.87,92.0,33.333333333333336,11.0,1015.8,,,,,,,,,,,,,2020-10-15 20:30:44,PMS5003+PMS5003+BME280,,,False,False,False,0,,,,,,,False,2.06,2.15,2.96,6.2,7.6,20.61
62971,,37.562377,-122.318688,309B 8th Ave,inside,1.41,91.0,32.77777777777778,23.0,1015.36,,,,,,,,,,,,,2020-10-15 20:29:42,PMS5003+PMS5003+BME280,,,False,False,False,1,,,,,,,False,1.45,1.74,2.23,2.74,3.34,9.33
36633,,37.77781,-122.489668,30th and Anza,inside,0.21,79.0,26.11111111111111,47.0,1007.01,,,,,,,,,,,,,2020-10-15 20:30:21,PMS5003+PMS5003+BME280,,,False,False,False,1,,,,,,,False,0.92,2.48,3.21,2.74,2.83,4.24
22529,,44.945267,-93.273187,3100 block 3rd Ave s,outside,1.09,62.0,16.666666666666668,39.0,969.4,,,,,,,,,,,,,2020-10-14 23:19:27,PMS5003+PMS5003+BME280,,,False,False,False,1272,,,,,,,False,1.4,1.66,1.92,2.35,4.23,7.99
11076,,20.105431,-155.784473,3100 foot elevation Kohala Mountain,outside,0.63,84.0,28.88888888888889,43.0,909.85,,,,,,,,,,,,,2020-10-15 20:31:36,PMS5003+PMS5003+BME280,,,False,False,False,0,,,,,,,False,0.92,0.82,0.74,1.01,1.5,1.61
75009,,37.790843,-122.446647,3127 Jackson,inside,42.71,80.0,26.666666666666668,35.0,1001.49,,,,,,,,,,,,,2020-10-08 00:46:31,PMS5003+PMS5003+BME280,,,False,False,False,11265,,,,,,,False,42.47,40.9,36.94,32.3,19.41,3.79
33633,,37.791905,-122.446967,3130 Pacific Ave,outside,1.78,102.0,38.88888888888889,10.0,1003.97,,,,,,,,,,,,,2020-10-15 20:31:16,PMS5003+PMS5003+BME280,,,False,False,False,0,,,,,,,False,2.11,2.47,3.41,5.35,5.49,15.4
40613,,37.791824,-122.446853,3130 Pacific Ave,inside,12.49,82.0,27.77777777777778,36.0,1004.69,,,,,,,,,,,,,2020-10-15 20:30:46,PMS5003+PMS5003+BME280,,,False,False,False,0,,,,,,,False,13.05,10.47,8.08,3.33,2.7,9.26
68165,,35.640445,-119.212794,31795 Whisler Road,outside,30.44,87.0,30.555555555555557,28.0,1003.18,,,,,,,,,,,,,2020-10-15 20:30:16,PMS5003+PMS5003+BME280,,,False,False,False,1,,,,,,,False,31.98,34.05,36.14,35.22,29.68,32.91
62169,,37.733413,-122.136319,319 Marlow Dr,inside,1.11,84.0,28.88888888888889,18.0,1013.03,,,,,,,,,,,,,2020-10-15 20:30:22,PMS5003+PMS5003+BME280,,,False,True,False,1,,,,,,,False,1.47,1.69,2.04,5.27,8.57,9.02
63271,,37.755575,-122.489363,31st & Moraga,outside,2.21,94.0,34.44444444444444,8.0,1006.43,,,,,,,,,,,,,2020-10-15 20:30:22,PMS5003+PMS5003+BME280,,,False,False,False,1,,,,,,,False,2.43,2.77,3.74,7.53,9.08,19.91
64941,,37.535995,-122.30686,31st Ave Mendou Gocki,outside,1.53,101.0,38.333333333333336,6.0,1015.11,,,,,,,,,,,,,2020-10-15 20:30:28,PMS5003+PMS5003+BME280,,,False,False,False,1,,,,,,,False,2.03,2.13,2.52,4.63,6.55,19.41
22103,,37.765192,-122.412546,320 Alabama,inside,0.0,84.0,28.88888888888889,41.0,1014.81,,,,,,,,,,,,,2020-10-15 20:30:35,PMS5003+PMS5003+BME280,,,False,False,False,1,,,,,,,False,0.03,0.27,1.26,4.76,3.13,2.32
27387,,34.200117,-119.184821,"320 S F St, Oxnard, CA 93030",outside,14.27,94.0,34.44444444444444,30.0,1013.09,,,,,,,,,,,,,2020-10-15 20:31:22,PMS5003+PMS5003+BME280,,,False,False,False,0,,,,,,,False,15.69,16.73,17.99,22.41,19.41,23.44
8988,,38.0285,-122.0302,"321 Wellington Ave, Clyde, CA",outside,0.64,102.0,38.88888888888889,7.0,1015.53,,,,,,,,,,,,,2020-10-15 20:31:23,PMS5003+PMS5003+BME280,,,False,False,False,0,,,,,,,False,1.13,1.19,1.34,3.44,6.96,26.94
47933,,39.328681,-76.612581,322 E 33rd St,outside,7.09,81.0,27.222222222222225,41.0,1006.29,,,,,,,,,,,,,2020-10-15 20:29:51,PMS5003+PMS5003+BME280,,,False,False,False,1,,,,,,,False,7.44,7.46,7.6,6.26,4.8,9.46
42195,,37.759698,-122.228976,3221 Garfield Ave.,inside,0.0,85.0,29.444444444444446,29.0,1015.82,,,,,,,,,,,,,2020-10-15 20:30:06,PMS5003+PMS5003+BME280,,,False,False,False,1,,,,,,,False,0.0,0.0,0.0,1.32,3.4,4.49
69851,,37.758911,-122.226942,3272 Thompson Ave.,outside,2.13,96.0,35.55555555555556,9.0,1015.58,,,,,,,,,,,,,2020-10-15 20:31:34,PMS5003+PMS5003+BME280,,,False,False,False,0,,,,,,,False,2.71,2.86,3.35,8.29,9.2,2.72
67729,,37.774319,-122.491773,32nd & Cabrillo,inside,0.33,86.0,30.0,35.0,1010.56,,,,,,,,,,,,,2020-10-15 20:29:42,PMS5003+PMS5003+BME280,,,False,True,False,1,,,,,,,False,0.47,0.41,0.7,2.07,2.94,7.64
78619,,37.772782,-122.491545,32ND AVE,outside,4.79,90.0,32.22222222222222,13.0,1011.96,,,,,,,,,,,,,2020-10-15 20:29:52,PMS5003+PMS5003+BME280,,,False,False,False,1,,,,,,,False,4.51,4.21,5.31,10.08,8.36,1.91
21037,,37.780464,-122.492304,32nd Ave,inside,1.24,88.0,31.111111111111114,17.0,996.06,,,,,,,,,,,,,2020-10-15 20:29:47,PMS5003+PMS5003+BME280,,,False,False,False,1,,,,,,,False,1.22,1.27,1.3,1.87,4.31,27.81
71283,,37.421252,-122.194403,33 campbell,inside,2.04,95.0,35.0,14.0,1008.29,,,,,,,,,,,,,2020-10-15 20:30:24,PMS5003+PMS5003+BME280,,,False,False,False,1,,,,,,,False,2.32,2.2,2.13,2.92,4.03,5.25
4187,,34.445036,-119.678206,"331 Conejo Road, Santa Barbara,CA",outside,18.53,93.0,33.88888888888889,28.0,999.61,,,,,,,,,,,,,2020-10-15 20:30:32,PMS5003+PMS5003+BME280,,,False,False,False,1,,,,,,,False,18.61,18.4,18.7,19.52,18.19,25.38
51299,,37.744755,-122.413597,3318 Folsom St.,outside,2.27,80.0,26.666666666666668,15.0,1004.63,,,,,,,,,,,,,2020-10-15 20:30:45,PMS5003+PMS5003+BME280,,,False,False,False,0,,,,,,,False,2.54,2.83,3.74,7.36,8.17,21.01
63117,,,,331c,outside,9.98,82.0,27.77777777777778,25.0,863.62,,,,,,,,,,,,,2020-08-28 22:12:14,PMS5003+PMS5003+BME280,,,False,False,False,69019,,,,,,,False,134.07,110.86,70.48,14.4,3.71,0.54
69389,,37.561731,-122.338531,333 outdoor,outside,2.57,90.0,32.22222222222222,12.0,1014.46,,,,,,,,,,,,,2020-10-15 20:29:56,PMS5003+PMS5003+BME280,,,False,True,False,1,,,,,,,False,2.42,2.51,3.14,5.77,7.29,11.79
36205,,38.219313,-122.147318,333-Indoor,inside,0.0,78.0,25.555555555555557,35.0,1015.44,,,,,,,,,,,,,2020-10-15 20:30:31,PMS5003+PMS5003+BME280,,,False,False,False,1,,,,,,,False,0.04,0.1,0.11,0.18,1.38,17.63
21277,,40.462273,-79.967915,3339 Penn Ave,outside,7.47,75.0,23.88888888888889,39.0,985.77,,,,,,,,,,,,,2020-10-15 20:30:32,PMS5003+PMS5003+BME280,,,False,False,False,1,,,,,,,False,8.3,8.67,8.93,7.54,7.96,11.41
64655,,37.46457,-122.218691,334,inside,1.49,90.0,32.22222222222222,15.0,1014.38,,,,,,,,,,,,,2020-10-15 20:31:17,PMS5003+PMS5003+BME280,,,False,False,False,0,,,,,,,False,1.8,1.81,1.97,4.76,7.7,10.66
61387,,37.464473,-122.218868,334-out,outside,1.54,89.0,31.666666666666668,13.0,1014.45,,,,,,,,,,,,,2020-10-15 20:29:47,PMS5003+PMS5003+BME280,,,False,False,False,1,,,,,,,False,1.87,1.79,1.95,4.2,7.04,15.35
68379,,37.782847,-120.993864,3347 Silverwood Street,outside,20.05,93.0,33.88888888888889,20.0,1013.1,,,,,,,,,,,,,2020-10-15 20:29:49,PMS5003+PMS5003+BME280,,,False,False,False,1,,,,,,,False,18.51,16.92,14.11,7.78,10.71,26.18
72529,,37.281708,-121.741492,3382 Royal Meadow Lane,outside,3.88,101.0,38.333333333333336,7.0,991.15,,,,,,,,,,,,,2020-10-15 20:29:44,PMS5003+PMS5003+BME280,,,False,False,False,1,,,,,,,False,2.83,2.53,2.61,4.42,7.43,15.21
32937,,51.648361,-120.042333,339 Helmcken,outside,6.09,55.0,12.777777777777779,97.0,978.55,,,,,,,,,,,,,2020-10-15 20:30:55,PMS5003+PMS5003+BME280,,,False,True,False,0,,,,,,,False,7.02,8.18,9.85,12.93,10.63,12.83
69763,,37.780819,-122.497416,34 Shore View Avenue,inside,4.98,78.0,25.555555555555557,47.0,1003.93,,,,,,,,,,,,,2020-10-04 03:16:23,PMS5003+PMS5003+BME280,,,False,False,False,16875,,,,,,,False,29.41,76.32,67.82,18.5,4.99,0.73
34583,,38.175546,-122.136801,342-Outdoor,outside,1.27,100.0,37.77777777777778,11.0,1013.4,,,,,,,,,,,,,2020-10-15 20:30:24,PMS5003+PMS5003+BME280,,,False,False,False,1,,,,,,,False,1.84,1.85,2.0,3.44,7.67,38.55
73337,,37.40345,-121.926672,350 River Oaks Pkwy,inside,2.54,90.0,32.22222222222222,22.0,1013.55,,,,,,,,,,,,,2020-10-15 20:30:44,PMS5003+PMS5003+BME280,,,False,False,False,0,,,,,,,False,2.49,2.62,3.06,5.92,10.41,16.47
64305,,37.763464,-122.431117,350 Sanchez,inside,0.97,92.0,33.333333333333336,18.0,1012.49,,,,,,,,,,,,,2020-10-15 20:30:32,PMS5003+PMS5003+BME280,,,False,False,False,1,,,,,,,False,1.47,1.52,1.91,4.19,5.02,8.91
63991,,37.763441,-122.431233,350 Sanchez,outside,4.46,103.0,39.44444444444444,7.0,1011.78,,,,,,,,,,,,,2020-10-15 20:31:03,PMS5003+PMS5003+BME280,,,False,False,False,0,,,,,,,False,3.58,3.74,4.71,8.85,9.79,20.77
5616,,40.620418,-79.144525,350 School ST,outside,7.82,82.0,27.77777777777778,28.0,965.72,,,,,,,,,,,,,2020-10-15 20:29:58,PMS5003+PMS5003+BME280,,,False,False,False,1,,,,,,,False,8.27,8.21,8.33,6.66,6.03,7.96
6434,,40.696268,-111.877378,3500 South 500 East,outside,0.35,65.0,18.333333333333336,22.0,880.85,,,,,,,,,,,,,2020-10-15 20:30:43,PMS5003+PMS5003+BME280,,,False,False,False,0,,,,,,,False,0.59,0.64,1.07,3.04,4.94,15.19
63657,,37.867107,-122.243389,"3514 Dwight way, Berkeley, CA",inside,1.61,92.0,33.333333333333336,21.0,988.31,,,,,,,,,,,,,2020-10-15 20:30:55,PMS5003+PMS5003+BME280,,,False,False,False,0,,,,,,,False,1.75,1.86,1.9,4.0,5.58,14.12
4135,,39.732016,-121.77647,"352 Saint Augustine Drive, Chico, CA 95928",outside,1.26,98.0,36.66666666666667,7.0,1006.16,,,,,,,,,,,,,2020-10-15 20:31:19,PMS5003+PMS5003+BME280,,,False,False,False,0,,,,,,,False,1.13,1.1,1.12,1.58,5.59,43.81
8690,,33.801738,-118.347352,3523 Madison Court,outside,15.95,87.0,30.555555555555557,40.0,1010.03,,,,,,,,,,,,,2020-10-15 20:31:31,PMS5003+PMS5003+BME280,,,False,False,False,0,,,,,,,False,18.81,22.15,25.0,24.36,21.02,27.42
36375,,38.244531,-122.064811,357-Indoor,inside,1.53,85.0,29.444444444444446,20.0,1015.9,,,,,,,,,,,,,2020-10-15 20:30:11,PMS5003+PMS5003+BME280,,,False,False,False,1,,,,,,,False,1.87,2.67,3.42,4.6,8.13,38.28
35007,,38.245062,-122.064783,357-Outdoor,outside,1.14,96.0,35.55555555555556,10.0,1015.12,,,,,,,,,,,,,2020-10-15 20:30:53,PMS5003+PMS5003+BME280,,,False,False,False,0,,,,,,,False,1.27,1.45,2.08,5.3,8.98,35.38
55333,,37.84316,-122.120947,359 Fernwood Dr,outside,0.61,109.0,42.77777777777778,5.0,997.1,,,,,,,,,,,,,2020-10-15 20:31:02,PMS5003+PMS5003+BME280,,,False,False,False,0,,,,,,,False,1.93,2.27,2.99,5.08,8.07,27.38
62883,,37.84316,-122.120947,359 Fernwood Dr,inside,10.42,84.0,28.88888888888889,33.0,996.98,,,,,,,,,,,,,2020-10-15 20:31:20,PMS5003+PMS5003+BME280,,,False,False,False,0,,,,,,,False,8.56,8.16,9.74,18.91,13.74,8.07
68179,,37.940939,-122.334666,35th St. & Cerrito Ave.,outside,1.7,104.0,40.0,5.0,1014.01,,,,,,,,,,,,,2020-10-15 20:31:19,PMS5003+PMS5003+BME280,,,False,False,False,0,,,,,,,False,1.67,1.92,2.59,5.86,7.65,15.95
62095,,37.772277,-122.495273,35th/Fulton,inside,4.41,82.0,27.77777777777778,39.0,1012.04,,,,,,,,,,,,,2020-10-15 20:31:30,PMS5003+PMS5003+BME280,,,False,False,False,0,,,,,,,False,4.77,5.48,6.36,8.95,7.93,6.36
67965,,37.765598,-122.424636,360 Guerrero st,outside,0.17,66.0,18.88888888888889,66.0,1014.61,,,,,,,,,,,,,2020-10-09 07:01:20,PMS5003+PMS5003+BME280,,,False,False,False,9450,,,,,,,False,1.09,4.86,10.46,27.59,30.63,12.69
34989,,38.293463,-122.109564,360-Indoor,inside,1.91,91.0,32.77777777777778,24.0,1012.27,,,,,,,,,,,,,2020-10-15 20:30:21,PMS5003+PMS5003+BME280,,,False,False,False,1,,,,,,,False,2.31,2.46,2.23,1.7,4.78,30.01
36377,,38.290533,-122.117389,360-Outdoor,outside,0.46,118.0,47.77777777777778,1.0,1011.41,,,,,,,,,,,,,2020-10-15 20:30:45,PMS5003+PMS5003+BME280,,,False,False,False,0,,,,,,,False,0.68,0.84,1.3,2.97,7.22,35.12
57069,,37.537746,-122.053479,36057 Brandywine St.,outside,2.59,92.0,33.333333333333336,13.0,1015.52,,,,,,,,,,,,,2020-10-15 20:29:53,PMS5003+PMS5003+BME280,,,False,False,False,1,,,,,,,False,2.63,2.56,2.64,5.31,7.77,23.36
43603,,33.912557,-118.378174,360SouthBay-west,outside,12.02,69.0,20.555555555555557,76.0,1012.96,,,,,,,,,,,,,2020-10-12 14:02:32,PMS5003+PMS5003+BME280,,,False,False,True,4709,,,,,,,False,6.52,7.55,12.22,41.49,85.27,112.21
43957,,39.089512,-108.367452,"3693 F Rd, EOM",inside,2.1,78.0,25.555555555555557,15.0,857.84,,,,,,,,,,,,,2020-10-15 20:30:59,PMS5003+PMS5003+BME280,,,False,False,False,0,,,,,,,False,2.61,2.82,4.21,3.49,1.54,1.23
39215,,45.501722,-122.626231,36th & SE Woodward,outside,4.59,80.0,26.666666666666668,32.0,1030.0,,,,,,,,,,,,,2020-10-15 20:30:35,PMS5003+PMS5003+BME280,,,False,False,False,1,,,,,,,False,5.02,8.2,11.64,14.99,9.7,32.6
60433,,37.780385,-122.497115,36th and Shore View,outside,2.98,105.0,40.55555555555556,9.0,1005.25,,,,,,,,,,,,,2020-10-15 20:29:59,PMS5003+PMS5003+BME280,,,False,False,False,1,,,,,,,False,2.95,3.22,4.19,7.97,8.75,22.15
36199,,37.525015,-122.043979,37216 Spruce St,outside,2.66,98.0,36.66666666666667,10.0,1015.46,,,,,,,,,,,,,2020-10-15 20:30:57,PMS5003+PMS5003+BME280,,,False,False,False,0,,,,,,,False,2.5,2.56,2.6,4.95,7.79,24.6
22799,,37.744862,-122.430721,375 28th St - downstairs,inside,3.3,82.0,27.77777777777778,35.0,1008.6,,,,,,,,,,,,,2020-10-15 20:31:22,PMS5003+PMS5003+BME280,,,False,False,False,0,,,,,,,False,1.81,1.58,2.03,4.52,5.08,7.15
64537,,37.744891,-122.430714,375 28th St - main floor,inside,1.91,94.0,34.44444444444444,15.0,1007.73,,,,,,,,,,,,,2020-10-15 20:30:35,PMS5003+PMS5003+BME280,,,False,False,False,1,,,,,,,False,1.69,1.73,2.01,3.6,4.62,6.35
63795,,37.744939,-122.430749,375 28th St Upstairs,inside,3.86,90.0,32.22222222222222,28.0,1012.08,,,,,,,,,,,,,2020-10-14 15:40:21,PMS5003+PMS5003+BME280,,,False,False,False,1731,,,,,,,False,4.27,3.98,3.41,3.93,5.36,7.14
23107,,40.757155,-111.789128,"3798 East Sunnydale Lane, Salt Lake City, Utah 84108",outside,0.23,62.0,16.666666666666668,20.0,854.54,,,,,,,,,,,,,2020-10-15 20:30:02,PMS5003+PMS5003+BME280,,,False,False,False,1,,,,,,,False,0.23,0.22,0.24,0.43,0.98,7.86
23453,,40.757189,-111.789025,"3798 East Sunnydale Lane, Salt Lake City, Utah 84108",inside,0.13,78.0,25.555555555555557,21.0,854.38,,,,,,,,,,,,,2020-10-15 20:30:00,PMS5003+PMS5003+BME280,,,False,False,False,1,,,,,,,False,0.14,0.18,0.21,0.36,0.75,3.62
64357,,37.530531,-122.304807,37th Ave,outside,2.48,90.0,32.22222222222222,11.0,1013.36,,,,,,,,,,,,,2020-10-15 20:30:22,PMS5003+PMS5003+BME280,,,False,False,False,1,,,,,,,False,2.44,2.56,2.85,4.82,7.01,16.92
63533,,37.381035,-122.117428,38 Third St.,outside,4.46,89.0,31.666666666666668,12.0,1009.97,,,,,,,,,,,,,2020-10-15 20:30:59,PMS5003+PMS5003+BME280,,,False,False,False,0,,,,,,,False,4.63,4.08,3.46,4.28,7.15,17.12
66209,,37.380716,-122.117253,38 Third St.,inside,0.0,86.0,30.0,28.0,1010.21,,,,,,,,,,,,,2020-10-15 20:31:25,PMS5003+PMS5003+BME280,,,False,False,False,0,,,,,,,False,0.01,0.03,0.08,0.39,1.83,6.01
18761,,43.644691,-70.27089,380 Danforth,outside,13.54,90.0,32.22222222222222,26.0,1008.12,,,,,,,,,,,,,2020-09-24 17:51:39,PMS5003+PMS5003+BME280,,,False,False,False,30400,,,,,,,False,12.28,12.12,12.88,13.76,7.61,5.78
30403,,51.657658,-120.04266,"381 Wyndhaven Pl, Clearwater",outside,6.17,60.0,15.555555555555557,47.0,978.44,,,,,,,,,,,,,2020-10-15 20:31:32,PMS5003+PMS5003+BME280,,,False,False,False,0,,,,,,,False,4.62,4.75,5.45,9.13,7.41,9.4
75453,,33.82754,-118.196932,"3820 Chestnut Ave, Long Beach, CA 90807",inside,14.77,78.0,25.555555555555557,19.0,870.24,,,,,,,,,,,,,2020-10-02 20:55:44,PMS5003+PMS5003+BME280,,,False,True,False,18695,,,,,,,False,76.81,115.44,90.69,22.76,6.07,0.88
50047,,40.330757,-80.207388,383 coleman road cecil,outside,4.53,71.0,21.666666666666668,39.0,971.02,,,,,,,,,,,,,2020-10-15 20:29:58,PMS5003+PMS5003+BME280,,,False,False,False,1,,,,,,,False,5.09,5.55,5.77,3.96,3.87,7.06
29865,,37.826928,-122.260801,38th & Webster,inside,2.06,97.0,36.111111111111114,13.0,1012.87,,,,,,,,,,,,,2020-10-15 20:30:11,PMS5003+PMS5003+BME280,,,False,False,False,1,,,,,,,False,2.28,2.55,2.31,2.14,2.87,3.66
71113,,37.760771,-122.497313,38TH and Judah indoor,inside,2.73,85.0,29.444444444444446,25.0,1011.29,,,,,,,,,,,,,2020-10-15 20:30:42,PMS5003+PMS5003+BME280,,,False,False,False,0,,,,,,,False,2.81,1.56,1.22,2.25,2.36,2.74
56461,,37.759281,-122.49753,38th and Kirkham,outside,9.86,88.0,31.111111111111114,20.0,1009.96,,,,,,,,,,,,,2020-10-15 20:29:46,PMS5003+PMS5003+BME280,,,False,False,False,1,,,,,,,False,8.28,5.69,5.18,8.71,9.13,20.16
26971,,37.786883,-122.392096,390 Fremont (Indoors),inside,4.15,87.0,30.555555555555557,31.0,1014.31,,,,,,,,,,,,,2020-10-15 20:30:14,PMS5003+PMS5003+BME280,,,False,False,False,1,,,,,,,False,4.21,4.46,4.73,5.07,5.75,20.32
26205,,45.699798,-121.890556,390 NW Chesser Rd.,outside,3.25,69.0,20.555555555555557,35.0,1022.14,,,,,,,,,,,,,2020-10-15 20:30:47,PMS5003+PMS5003+BME280,,,False,True,False,0,,,,,,,False,2.72,5.94,10.13,14.97,11.38,34.01
36367,,38.291578,-122.041053,390-Outdoor,outside,1.98,104.0,40.0,6.0,1009.82,,,,,,,,,,,,,2020-10-15 20:30:08,PMS5003+PMS5003+BME280,,,False,False,False,1,,,,,,,False,1.6,1.54,1.57,3.23,7.98,35.39
65095,,38.221891,-122.627917,396 Grant Ave,inside,12.59,83.0,28.333333333333336,28.0,1014.32,,,,,,,,,,,,,2020-10-15 20:31:08,PMS5003+PMS5003+BME280,,,False,True,False,0,,,,,,,False,13.89,16.36,18.8,15.53,12.27,21.68
62269,,37.528592,-122.304715,39th Ave,outside,2.02,91.0,32.77777777777778,10.0,1009.56,,,,,,,,,,,,,2020-10-15 20:31:19,PMS5003+PMS5003+BME280,,,False,False,False,0,,,,,,,False,2.07,2.23,2.49,4.18,6.34,20.39
20765,,45.37186,-122.765109,3DAdams Weather ,outside,2.45,66.0,18.88888888888889,45.0,1026.89,,,,,,,,,,,,,2020-10-15 20:31:23,PMS5003+PMS5003+BME280,,,False,False,False,0,,,,,,,False,2.85,3.93,5.83,8.94,7.39,33.97
71925,,37.855207,-122.041336,3K,inside,1.68,86.0,30.0,14.0,1007.13,,,,,,,,,,,,,2020-10-15 20:30:46,PMS5003+PMS5003+BME280,,,False,False,False,0,,,,,,,False,1.69,1.7,1.76,3.26,5.3,6.84
36727,,37.478128,-122.229822,"3rd (4th) floor, Clinton Apts.",outside,2.61,118.0,47.77777777777778,3.0,1014.41,,,,,,,,,,,,,2020-10-15 20:30:54,PMS5003+PMS5003+BME280,,,False,False,False,0,,,,,,,False,2.05,1.86,1.97,4.5,7.34,22.37
5778,,34.020344,-118.501704,3rd and California,outside,29.56,87.0,30.555555555555557,41.0,1009.49,,,,,,,,,,,,,2020-10-15 20:29:41,PMS5003+PMS5003+BME280,,,False,False,False,1,,,,,,,False,29.46,31.57,30.94,27.15,24.68,28.15
36433,,33.999649,-118.478577,3rd and Marine,outside,29.71,87.0,30.555555555555557,44.0,1011.58,,,,,,,,,,,,,2020-10-15 20:29:43,PMS5003+PMS5003+BME280,,,False,False,False,1,,,,,,,False,28.61,29.14,28.96,27.5,23.43,26.33
25019,,33.99975,-118.478623,3rd and Marine,inside,11.72,90.0,32.22222222222222,40.0,1012.06,,,,,,,,,,,,,2020-10-15 20:31:19,PMS5003+PMS5003+BME280,,,False,False,False,0,,,,,,,False,11.79,12.98,13.28,12.82,10.53,9.37
33881,,39.959844,-82.997465,3rd and State St,outside,33.5,,,,,,,,,,,,,,,,,2020-09-24 09:15:28,PMS5003+PMS5003+BME280,,,False,False,False,30916,,,,,,,False,30.84,28.15,26.94,21.09,14.19,10.99
70953,,40.773083,-111.866368,3rd Ave SFJ,inside,0.02,75.0,23.88888888888889,15.0,873.63,,,,,,,,,,,,,2020-10-15 20:31:15,PMS5003+PMS5003+BME280,,,False,False,False,0,,,,,,,False,0.03,0.11,0.37,1.02,6.7,8.5
72541,,33.99846,-118.477091,3rd Ave Venice,outside,34.68,86.0,30.0,51.0,1012.44,,,,,,,,,,,,,2020-10-15 20:31:06,PMS5003+PMS5003+BME280,,,False,False,False,0,,,,,,,False,34.77,35.37,34.96,33.6,28.54,21.79
22881,,35.6653,-105.968919,3rd St. SF NM,outside,0.0,77.0,25.0,15.0,793.89,,,,,,,,,,,,,2020-10-15 20:30:26,PMS5003+PMS5003+BME280,,,False,False,True,1,,,,,,,False,0.0,0.0,0.0,0.0,0.0,0.0
60365,,45.421562,-122.629802,3SG,outside,6.05,87.0,30.555555555555557,25.0,1026.11,,,,,,,,,,,,,2020-10-15 20:31:06,PMS5003+PMS5003+BME280,,,False,False,False,0,,,,,,,False,7.08,9.91,12.63,11.12,7.58,25.97
61519,,45.422556,-122.630188,3SG-Indoors,inside,2.5,78.0,25.555555555555557,33.0,1026.43,,,,,,,,,,,,,2020-10-15 20:29:43,PMS5003+PMS5003+BME280,,,False,False,False,1,,,,,,,False,2.24,2.93,4.11,5.13,4.89,17.24
3986,,40.433795,-79.876218,3xx Dewey Ave,outside,6.95,77.0,25.0,42.0,970.59,,,,,,,,,,,,,2020-10-15 20:30:32,PMS5003+PMS5003+BME280,,,False,False,False,1,,,,,,,False,7.04,7.03,7.04,5.43,5.34,10.32
14815,,40.433891,-79.876247,3xx Dewey Interior,inside,6.07,86.0,30.0,30.0,971.62,,,,,,,,,,,,,2020-10-15 20:30:14,PMS5003+PMS5003+BME280,,,False,False,False,1,,,,,,,False,5.2,4.99,4.76,3.61,5.59,9.86
67271,,37.367053,-122.20925,"40 BUCKEYE, PORTOLA VALLEY, CA",outside,3.75,91.0,32.77777777777778,9.0,991.99,,,,,,,,,,,,,2020-10-15 20:31:03,PMS5003+PMS5003+BME280,,,False,False,False,0,,,,,,,False,2.59,2.14,1.93,2.62,4.7,12.19
45861,,40.136164,-105.148818,"40.136, -105.149",outside,3.0,59.0,15.0,29.0,852.95,,,,,,,,,,,,,2020-10-15 18:41:08,PMS5003+PMS5003+BME280,,,False,False,False,110,,,,,,,False,2.55,1.87,1.41,2.26,5.92,16.39
64853,,47.497611,-117.572688,400 Block N 4th St,outside,0.75,57.0,13.88888888888889,33.0,948.21,,,,,,,,,,,,,2020-10-15 20:31:15,PMS5003+PMS5003+BME280,,,False,False,False,0,,,,,,,False,0.92,1.01,1.34,1.99,3.19,21.95
71699,,37.755914,-122.435851,4001 21st Inside,inside,2.28,95.0,35.0,10.0,1003.53,,,,,,,,,,,,,2020-10-15 20:29:40,PMS5003+PMS5003+BME280,,,False,False,False,1,,,,,,,False,2.25,2.35,2.94,5.1,6.61,7.34
64781,,37.575536,-122.352191,401 Occidental Ave. Burlingame CA 94010,outside,2.53,111.0,43.88888888888889,3.0,1015.31,,,,,,,,,,,,,2020-10-15 20:30:34,PMS5003+PMS5003+BME280,,,False,False,False,1,,,,,,,False,2.46,2.55,3.14,6.1,7.23,19.85
19985,,39.708194,-121.820159,402 Otterson Dr Outside,outside,1.59,93.0,33.88888888888889,12.0,1009.63,,,,,,,,,,,,,2020-10-15 20:30:33,PMS5003+PMS5003+BME280,,,False,False,False,1,,,,,,,False,1.71,1.64,1.58,2.27,7.28,38.6
23471,,39.707713,-121.820774,402 Otterson Drive,inside,22.96,87.0,30.555555555555557,22.0,1008.48,,,,,,,,,,,,,2020-10-01 05:40:05,PMS5003+PMS5003+BME280,,,False,False,False,21051,,,,,,,False,23.55,23.58,25.56,40.69,27.88,31.58
74647,,37.808788,-122.212537,4036 Waterhouse Road,inside,1.53,88.0,31.111111111111114,17.0,1004.36,,,,,,,,,,,,,2020-10-15 20:29:43,PMS5003+PMS5003+BME280,,,False,False,False,1,,,,,,,False,1.99,1.71,1.67,2.84,5.0,3.57
68373,,37.738138,-122.416956,406 Andover St,outside,2.09,97.0,36.111111111111114,8.0,1010.25,,,,,,,,,,,,,2020-10-15 20:29:52,PMS5003+PMS5003+BME280,,,False,False,False,1,,,,,,,False,2.36,2.78,4.0,8.08,8.53,14.15
63537,,37.89557,-122.15734,4067 Los Arabis Dr,outside,2.34,93.0,33.88888888888889,9.0,999.56,,,,,,,,,,,,,2020-10-15 20:31:03,PMS5003+PMS5003+BME280,,,False,False,False,0,,,,,,,False,2.09,2.14,2.21,2.92,5.18,23.94
7562,,38.586113,-121.489377,409 11th Street,outside,9.0,94.0,34.44444444444444,15.0,1015.06,,,,,,,,,,,,,2020-10-15 20:29:41,PMS5003+PMS5003+BME280,,,False,False,False,1,,,,,,,False,6.14,4.85,3.68,2.94,7.84,31.88
75761,,37.272201,-119.800973,"40997 Road 612, Raymond, CA",outside,55.41,92.0,33.333333333333336,17.0,954.72,,,,,,,,,,,,,2020-10-15 20:30:39,PMS5003+PMS5003+BME280,,,False,True,False,1,,,,,,,False,52.91,56.04,59.22,48.84,34.06,9.37
62159,,37.755266,-122.499251,40Moraga,inside,7.13,94.0,34.44444444444444,19.0,1012.13,,,,,,,,,,,,,2020-10-15 20:30:50,PMS5003+PMS5003+BME280,,,False,True,False,0,,,,,,,False,7.72,6.95,9.36,13.85,11.37,18.59
72495,,44.01168,-123.081149,40th & Hilyard,outside,8.72,59.0,15.0,57.0,1013.07,,,,,,,,,,,,,2020-10-15 20:31:37,PMS5003+PMS5003+BME280,,,False,False,False,0,,,,,,,False,10.95,13.56,14.54,11.93,5.8,1.05
4635,,38.567228,-121.454481,40th and M (inside),inside,16.95,83.0,28.333333333333336,31.0,1016.39,,,,,,,,,,,,,2020-10-15 20:30:41,PMS5003+PMS5003+BME280,,,False,False,False,0,,,,,,,False,14.38,9.19,6.34,7.04,8.87,7.13
63289,,37.566544,-122.343336,414 Dorchester,outside,2.45,89.0,31.666666666666668,13.0,1014.41,,,,,,,,,,,,,2020-10-15 20:29:53,PMS5003+PMS5003+BME280,,,False,False,False,1,,,,,,,False,2.23,2.27,2.82,5.5,6.78,19.32
63189,,37.566784,-122.343177,414 Dorchester,inside,1.84,84.0,28.88888888888889,33.0,1014.15,,,,,,,,,,,,,2020-10-15 20:29:50,PMS5003+PMS5003+BME280,,,False,False,False,1,,,,,,,False,1.58,1.39,1.52,2.31,3.47,9.97
75549,,37.404171,-121.923312,417 Camille,inside,0.0,90.0,32.22222222222222,24.0,1014.94,,,,,,,,,,,,,2020-10-15 20:31:20,PMS5003+PMS5003+BME280,,,False,False,False,0,,,,,,,False,0.14,0.59,1.1,1.69,2.71,1.8
66159,,37.401479,-121.923287,418 Galleria Indoor,inside,1.02,78.0,25.555555555555557,27.0,1015.31,,,,,,,,,,,,,2020-10-15 20:31:13,PMS5003+PMS5003+BME280,,,False,False,False,0,,,,,,,False,0.51,0.94,1.15,1.57,3.79,5.08
36673,,46.24289,-114.16004,419 S. 4th St,outside,2.72,56.0,13.333333333333334,28.0,906.71,,,,,,,,,,,,,2020-10-15 20:31:12,PMS5003+PMS5003+BME280,,,False,False,False,0,,,,,,,False,2.16,1.37,1.44,2.31,5.12,19.44
68931,,38.741754,-122.919558,421 Ram Hill,outside,19.95,102.0,38.88888888888889,7.0,998.63,,,,,,,,,,,,,2020-10-15 20:29:53,PMS5003+PMS5003+BME280,,,False,True,False,1,,,,,,,False,28.16,36.78,42.21,33.24,18.7,30.65
50461,,34.32563,-119.29343,4213 Crooked Palm Road,outside,19.0,111.0,43.88888888888889,11.0,1008.33,,,,,,,,,,,,,2020-10-15 20:30:29,PMS5003+PMS5003+BME280,,,False,False,False,1,,,,,,,False,18.02,18.25,19.15,19.91,18.46,20.62
29869,,36.7417,-119.75049,4250 E Tulare,outside,32.69,108.0,42.22222222222222,19.0,1004.63,,,,,,,,,,,,,2020-10-15 20:29:40,PMS5003+PMS5003+BME280,,,False,False,False,1,,,,,,,False,32.83,32.92,34.67,36.49,29.65,45.19
71233,,37.83277,-122.275017,42nd B/N Market & Adelaide,inside,4.34,87.0,30.555555555555557,21.0,1014.08,,,,,,,,,,,,,2020-10-15 20:31:04,PMS5003+PMS5003+BME280,,,False,False,False,0,,,,,,,False,3.36,3.49,4.1,6.32,6.3,6.9
63385,,37.832342,-122.273493,42nd st,inside,3.0,88.0,31.111111111111114,26.0,1012.86,,,,,,,,,,,,,2020-10-15 20:30:49,PMS5003+PMS5003+BME280,,,False,False,False,0,,,,,,,False,3.03,3.43,3.95,5.13,5.74,16.34
67755,,38.232507,-122.632981,434 1st St Petaluma CA 94952,inside,4.43,87.0,30.555555555555557,31.0,1016.28,,,,,,,,,,,,,2020-10-15 20:30:58,PMS5003+PMS5003+BME280,,,False,False,False,0,,,,,,,False,3.98,4.58,5.08,3.72,3.17,6.36
